,complexTypeName,complexType,complexName,complexNo,totalHouseHoldCount,totalDongCount,useApproveYmd,minArea,maxArea,minPrice,maxPrice,minLeasePrice,maxLeasePrice,leasePerDealRate,isaleDealRestrictionCode,rebuildMembershipTransYn,livingResidenceYn,latitude,longitude
0,아파트,A01,YH빌리지,146479,16,1,20170908,33.02,36.32,0,0,0,0,0.0,N,N,N,37.478247,127.04667
0,아파트,A01,개포래미안포레스트,119219,2296,31,20200928,74.31,174.19,167000,420000,35000,220000,0.0,N,N,N,37.478448,127.054031
0,아파트,A01,개포비버리하임(도시형),140057,29,2,20181112,28.54,66.23,0,0,0,0,0.0,N,N,N,37.474555,127.049412
0,아파트,A01,개포상지리츠빌,107513,18,1,20030328,178.74,240.58,310000,780000,400000,400000,0.0,N,N,N,37.487257,127.060199
0,아파트,A01,개포자이,8928,212,4,20040617,160.71,204.52,270000,360000,120000,130000,0.0,N,N,N,37.496437,127.077115
0,아파트,A01,개포자이르네,145017,28,1,20221005,71.89,158.9,118500,270000,65000,65000,0.0,N,N,N,37.478654,127.055232
0,아파트,A01,개포자이프레지던스,128527,3375,35,202303,59.86,243.78,218000,400000,78000,195000,0.0,N,N,N,37.485251,127.07162
0,아파트,A01,개포현대(200동),103385,72,1,19860724,101.55,101.55,0,0,75000,75000,0.0,N,N,N,37.481772,127.052579
0,아파트,A01,개포현대2차(220동),10329,54,1,19880902,98.54,98.54,190000,190000,70000,75000,0.0,N,N,N,37.481215,127.052733
0,아파트,A01,개포현대5차,8967,18,1,19940222,148.38,148.38,210000,210000,0,0,0.0,N,N,N,37.484319,127.060077
0,아파트,A01,개포현대6차,10863,19,1,19931217,116.85,154.77,240000,240000,0,0,0.0,N,N,N,37.479759,127.046004
0,아파트,A01,경남,28,678,9,19840308,97.92,198.33,250000,380000,71000,120000,0.0,N,N,N,37.484623,127.054115
0,아파트,A01,그루(주상복합),127927,20,1,20190801,16.12,39.97,0,0,0,0,0.0,N,N,N,37.47713,127.045622
0,아파트,A01,노블레스빌(도시형),152745,14,1,20180510,33.6,53.27,0,0,0,0,0.0,N,N,N,37.474849,127.048625
0,아파트,A01,뉴현대파크빌,118254,10,1,20010516,79.61,96.08,0,0,0,0,0.0,N,N,N,37.474809,127.054818
0,아파트,A01,대청,419,822,6,19921014,56.5,81.67,110000,180000,33000,68000,0.0,N,N,N,37.495077,127.077121
0,아파트,A01,대치2단지,483,1758,11,19921014,46.73,67.75,98000,160000,30000,48000,0.0,N,N,N,37.494658,127.075486
0,아파트,A01,더샵그린,14947,19,1,19960923,214.21,258.84,0,0,0,0,0.0,N,N,N,37.4733,127.052369
0,아파트,A01,더샵트리에,881,232,2,202112,132.23,135.57,226000,280000,118000,133000,0.0,N,N,N,37.484809,127.057097
0,아파트,A01,디에이치아너힐즈,113151,1320,23,20190829,67.54,202.81,170000,600000,94000,265000,0.0,N,N,N,37.484658,127.067248
0,아파트,A01,디에이치퍼스티어아이파크,134062,6702,74,202311,50.73,230.69,129000,850000,44700,660000,0.0,N,N,N,37.479956,127.058861
0,아파트,A01,라온(도시형),163642,10,1,20150916,47.76,57.18,0,0,0,0,0.0,N,N,N,37.47253,127.050983
0,아파트,A01,래미안블레스티지,112228,1957,23,20190226,67.77,249.51,164000,450000,76000,220000,0.0,N,N,N,37.481058,127.064178
0,아파트,A01,런던빌개포,146839,15,1,20211123,28.6,40.61,0,0,0,0,0.0,N,N,N,37.474952,127.047937
0,아파트,A01,렉스힐(주상복합),104598,8,1,20111116,55.19,55.19,120000,120000,39000,39000,0.0,N,N,N,37.483005,127.062547
0,아파트,A01,리더스,102805,10,1,20021226,92.57,94.36,0,0,0,0,0.0,N,N,N,37.474466,127.054806
0,아파트,A01,새롬,11078,41,3,20000701,48.87,82.85,95000,120000,48000,60000,0.0,N,N,N,37.47326,127.052901
0,아파트,A01,쌍용개포(주상복합),16228,16,1,19950331,162.94,162.94,0,0,0,0,0.0,N,N,N,37.481127,127.053085
0,아파트,A01,에버그린(주상복합),124917,9,1,20030312,74.08,106.04,145000,145000,48000,60000,0.0,N,N,N,37.482932,127.061271
0,아파트,A01,예가풍경채(도시형),152528,14,1,20190213,32.35,63.79,0,0,0,0,0.0,N,N,N,37.477122,127.049481
0,아파트,A01,우성3차,667,405,5,19841231,110.6,182.45,245000,350000,70000,130000,0.0,N,N,N,37.483998,127.056011
0,아파트,A01,우성6차,770,270,8,19871121,61.32,86.52,180000,250000,26000,55000,0.0,N,N,N,37.476763,127.05721
0,아파트,A01,우성8차,818,261,3,19870921,98.87,109.35,200000,240000,65000,80000,0.0,N,N,N,37.488147,127.062246
0,아파트,A01,우찬현대(101),102377,15,1,20060626,65.21,156.31,0,0,0,0,0.0,N,N,N,37.479471,127.048752
0,아파트,A01,우찬현대(102),102378,10,1,20060626,71.89,152.26,0,0,0,0,0.0,N,N,N,37.479518,127.04908
0,아파트,A01,우찬현대(103),102379,10,1,20060626,71.89,152.26,160000,160000,0,0,0.0,N,N,N,37.479506,127.048628
0,아파트,A01,포이벨리,110128,10,1,20011231,98.3,98.3,93000,93000,0,0,0.0,N,N,N,37.47462,127.055156
0,아파트,A01,한림,113016,12,1,20020311,82.57,82.57,90000,100000,0,0,0.0,N,N,N,37.473981,127.054096
0,아파트,A01,현대1차,1317,416,6,19840420,102.73,193.8,240000,370000,70000,130000,0.0,N,N,N,37.482427,127.05447
0,아파트,A01,현대2차,1321,558,13,19860131,105.78,195.17,250000,580000,75000,130000,0.0,N,N,N,37.482796,127.051051
0,아파트,A01,현대3차,1327,198,5,19860331,105.86,198.26,235000,400000,100000,160000,0.0,N,N,N,37.488014,127.061354
0,아파트,A01,현대빌라트,16229,14,1,19971224,174.05,194.46,190000,190000,110000,110000,0.0,N,N,N,37.474059,127.053694
0,아파트,A01,N168(도시형),140453,132,1,20210305,26.32,43.09,0,0,0,0,0.0,N,N,N,37.513061,127.029552
0,아파트,A01,강남파라곤(주상복합),17533,58,1,20070130,100.88,203.87,170000,210000,90000,90000,0.0,N,N,N,37.516614,127.040137
0,아파트,A01,거평프리젠,8431,113,1,19960903,41.83,82.93,33500,58000,28000,35000,0.0,N,N,N,37.506376,127.027679
0,아파트,A01,경남논현,1332,60,1,19960909,79.97,153.41,130000,155000,77000,77000,0.0,N,N,N,37.51065,127.038175
0,아파트,A01,골든캐슬,105408,7,1,20090824,131.35,154.9,0,0,0,0,0.0,N,N,N,37.519667,127.03883
0,아파트,A01,그랑디오스,26196,15,1,20040917,100.59,163.69,0,0,0,0,0.0,N,N,N,37.511248,127.042796
0,아파트,A01,기린힐스(도시형),136172,249,1,20201030,26.2,33.34,0,0,0,0,0.0,N,N,N,37.512999,127.030891
0,아파트,A01,꿈꾸지오(도시형),144406,28,2,20190306,26.28,38.37,0,0,0,0,0.0,N,N,N,37.511581,127.041822
0,아파트,A01,논현e-편한세상,14671,63,1,20050720,109.11,166.4,130000,230000,0,0,0.0,N,N,N,37.506748,127.029156
0,아파트,A01,논현대우멤버스카운티,104277,19,1,20041201,150.45,153.85,0,0,0,0,0.0,N,N,N,37.516721,127.027782
0,아파트,A01,논현더라움,138264,16,1,20190320,31.77,34.34,55000,55000,0,0,0.0,N,N,N,37.515216,127.041199
0,아파트,A01,논현동부센트레빌,8936,160,4,20031224,106.82,136.29,180000,255000,78000,140000,0.0,N,N,N,37.51035,127.037717
0,아파트,A01,논현동양파라곤,8971,203,4,20040602,173.4,301.42,400000,650000,270000,270000,0.0,N,N,N,37.514851,127.038281
0,아파트,A01,논현두산위브1단지,9765,130,2,20040630,107.71,140.87,173000,200000,0,0,0.0,N,N,N,37.513536,127.038366
0,아파트,A01,논현두산위브2단지,101321,136,2,20040630,87.65,135.37,155000,200000,85000,130000,0.0,N,N,N,37.51257,127.038141
0,아파트,A01,논현라폴리움,106971,18,1,20120831,491.26,540.18,550000,550000,400000,400000,0.0,N,N,N,37.514108,127.038845
0,아파트,A01,논현멤버스카운티,108089,11,1,20031017,120.27,124.88,200000,200000,0,0,0.0,N,N,N,37.514187,127.023268
0,아파트,A01,논현베르빌,10727,65,1,20021227,130.84,227.23,132000,158000,0,0,0.0,N,N,N,37.512671,127.032812
0,아파트,A01,논현브라운스톤로얄스위트,102760,19,1,20050322,249.11,266.39,0,0,0,0,0.0,N,N,N,37.513295,127.024298
0,아파트,A01,논현빌라트,127488,10,1,19990817,54.22,77.98,0,0,0,0,0.0,N,N,N,37.519248,127.039963
0,아파트,A01,논현신동아파밀리에,18,644,6,19970704,52.92,140.5,85500,230000,35000,85000,0.0,N,N,N,37.514887,127.022874
0,아파트,A01,논현아이파크(주상복합),121973,99,1,20200828,69.0,123.76,105000,165000,84000,90000,0.0,N,N,N,37.510439,127.036096
0,아파트,A01,논현아테나니케,121579,12,1,20041126,127.92,128.73,0,0,0,0,0.0,N,N,N,37.515026,127.026998
0,아파트,A01,논현아트빌,13165,11,1,20030501,80.87,126.42,83000,83000,0,0,0.0,N,N,N,37.512423,127.032238
0,아파트,A01,논현아펠바움1차,26416,38,4,20071214,277.91,311.2,570000,600000,390000,400000,0.0,N,N,N,37.513417,127.037033
0,아파트,A01,논현아펠바움2차,103939,38,3,20110901,281.22,317.73,600000,650000,0,0,0.0,N,N,N,37.512642,127.036941
0,아파트,A01,논현월드메르디앙,22828,82,1,20070222,94.26,144.5,140000,140000,77000,77000,0.0,N,N,N,37.51359,127.033897
0,아파트,A01,논현웰스톤(주상복합),27822,38,1,20090316,93.53,126.87,120000,147000,68000,70000,0.0,N,N,N,37.518399,127.03801
0,아파트,A01,논현테크노빌,109991,10,2,20030704,117.86,203.67,210000,210000,100000,100000,0.0,N,N,N,37.512167,127.041675
0,아파트,A01,논현파크빌(도시형),137945,27,1,20130419,21.43,27.93,0,0,0,0,0.0,N,N,N,37.510615,127.023885
0,아파트,A01,"논현팰리스(민간임대,도시형)",126259,39,2,20190603,28.5,48.85,0,0,0,0,0.0,N,N,N,37.507057,127.028169
0,아파트,A01,논현펜트힐캐스케이드(도시형),138046,130,1,20230228,63.51,71.08,108000,171926,54000,120000,0.0,N,N,N,37.518148,127.035771
0,아파트,A01,논현프라임(192-3),100691,19,1,20041006,144.68,150.14,0,0,0,0,0.0,N,N,N,37.508157,127.032836
0,아파트,A01,논현한가람,9618,32,1,20021021,102.67,169.38,150000,175000,73000,92000,0.0,N,N,N,37.51872,127.03742
0,아파트,A01,논현한진로즈힐,11616,81,2,20040527,92.44,132.97,150000,155000,72000,72000,0.0,N,N,N,37.520834,127.037141
0,아파트,A01,논현한화꿈에그린,18195,70,2,20050503,89.17,89.17,105000,135000,69000,80000,0.0,N,N,N,37.50705,127.030837
0,아파트,A01,논현한화꿈에그린2차,22571,46,1,20061130,104.67,147.31,132000,160000,70000,75000,0.0,N,N,N,37.50757,127.03082
0,아파트,A01,논현힐스빌5차,128649,7,1,20030805,248.68,248.68,0,0,0,0,0.0,N,N,N,37.517484,127.027858
0,아파트,A01,논현힐스빌6차,122670,4,1,20030808,228.44,231.14,300000,300000,240000,250000,0.0,N,N,N,37.517554,127.027553
0,아파트,A01,더그레이스,13362,9,1,20030430,106.35,112.89,0,0,0,0,0.0,N,N,N,37.513015,127.034165
0,아파트,A01,더원센트럴(주상복합),121423,29,1,20180618,34.3,66.05,52000,52000,0,0,0.0,N,N,N,37.517187,127.039719
0,아파트,A01,더케이(도시형),118925,16,1,20120514,20.49,36.77,0,0,0,0,0.0,N,N,N,37.518058,127.039142
0,아파트,A01,더클래식논현(도시형),114271,14,2,20170206,33.26,100.23,0,0,0,0,0.0,N,N,N,37.513715,127.022833
0,아파트,A01,동광팰리스(도시형),120589,38,2,20160510,29.26,45.5,39000,67000,30000,45000,0.0,N,N,N,37.519331,127.038519
0,아파트,A01,동현,3,548,6,19861020,102.47,175.38,204000,350000,61000,125000,0.0,N,N,N,37.51938,127.036753
0,아파트,A01,"동화(민간임대,도시형)",114469,236,1,20120817,32.23,72.28,0,0,0,0,0.0,N,N,N,37.510668,127.023389
0,아파트,A01,두영,22333,17,1,20040628,94.52,97.81,100000,107000,0,0,0.0,N,N,N,37.512172,127.032377
0,아파트,A01,라디안,118649,10,1,20040324,77.7,129.86,0,0,0,0,0.0,N,N,N,37.513091,127.02252
0,아파트,A01,라이헤스빌,107896,13,1,20021119,74.6,118.81,0,0,0,0,0.0,N,N,N,37.518756,127.038718
0,아파트,A01,로체샤르캐슬,103370,17,1,20090327,99.4,125.69,135000,140000,80000,85000,0.0,N,N,N,37.517255,127.036916
0,아파트,A01,루시아도산208(도시형),144649,55,1,202307,57.63,60.66,120000,149000,50000,120000,0.0,N,N,N,37.519658,127.029458
0,아파트,A01,리더스빌,101877,19,1,20040831,81.25,206.56,0,0,150000,150000,0.0,N,N,N,37.508253,127.032484
0,아파트,A01,리츠하우스,117690,12,1,20030626,300.31,300.41,600000,600000,0,0,0.0,N,N,N,37.514449,127.025042
0,아파트,A01,마블하우스,106453,12,1,20030725,153.02,183.84,185000,185000,0,0,0.0,N,N,N,37.512389,127.042408
0,아파트,A01,마일스디오빌(주상복합),10825,260,1,20041126,47.19,47.19,40000,41000,32000,35000,0.0,N,N,N,37.51379,127.02892
0,아파트,A01,베스티움(도시형),151378,15,1,20120824,24.28,28.67,0,0,0,0,0.0,N,N,N,37.510594,127.034227
0,아파트,A01,벨러스빌,103839,10,1,20040729,95.83,178.31,0,0,115000,115000,0.0,N,N,N,37.512966,127.022639
0,아파트,A01,보노체아(도시형),105867,22,1,20110919,17.86,27.8,0,0,0,0,0.0,N,N,N,37.508101,127.031525
0,아파트,A01,브라이튼N40(민간임대),151286,148,5,20220610,102.1,299.79,275700,1270000,180000,320000,0.0,N,N,N,37.514362,127.026587
0,아파트,A01,블레스홈(도시형),151583,17,1,20120809,29.99,49.81,0,0,0,0,0.0,N,N,N,37.512593,127.040877
0,아파트,A01,비쥬힐,106267,10,1,20031023,87.53,141.26,0,0,0,0,0.0,N,N,N,37.514834,127.027366
0,아파트,A01,삼성빌라트,106667,19,1,19981022,121.01,172.68,138000,150000,0,0,0.0,N,N,N,37.516543,127.031359
0,아파트,A01,서진플로렌스190(도시형),152744,19,1,20180905,29.42,35.81,0,0,0,0,0.0,N,N,N,37.508409,127.031117
0,아파트,A01,세호시티라이프(주상복합),18190,19,1,19960322,55.96,79.85,0,0,0,0,0.0,N,N,N,37.510475,127.024334
0,아파트,A01,스위트캐슬,107165,16,2,200307,270.21,270.62,0,0,0,0,0.0,N,N,N,37.516456,127.028498
0,아파트,A01,스위트케슬레지던스,105430,17,1,20041223,122.16,241.39,160000,360000,0,0,0.0,N,N,N,37.512535,127.023889
0,아파트,A01,신동아,103455,12,2,19961227,226.56,262.29,0,0,0,0,0.0,N,N,N,37.51024,127.034088
0,아파트,A01,쌍용,29,111,1,19960724,83.17,117.82,110000,130000,55000,60000,0.0,N,N,N,37.519716,127.038185
0,아파트,A01,아나하(도시형),137269,16,1,20200616,36.48,116.57,190000,380000,120000,290000,0.0,N,N,N,37.514213,127.036847
0,아파트,A01,아츠논현(도시형),141007,24,1,20231030,49.76,66.3,135000,255280,60000,150000,0.0,N,N,N,37.512201,127.036029
0,아파트,A01,아크로힐스논현,108825,368,4,20141208,109.73,148.25,220000,310000,115000,160000,0.0,N,N,N,37.509594,127.038948
0,아파트,A01,알파임하우스Ⅱ,113911,16,2,20020503,257.91,257.91,600000,600000,0,0,0.0,N,N,N,37.514256,127.023934
0,아파트,A01,애플타운(주상복합),18191,19,1,20021018,36.76,247.91,0,0,0,0,0.0,N,N,N,37.515053,127.021164
0,아파트,A01,엔트라움논현(도시형),148208,14,1,20211220,35.38,53.56,0,0,45600,45600,0.0,N,N,N,37.508269,127.028619
0,아파트,A01,예원베스트빌,16236,8,1,20020513,109.38,126.08,0,0,0,0,0.0,N,N,N,37.509113,127.035188
0,아파트,A01,요진보네르,142720,9,1,20030623,102.11,186.88,0,0,0,0,0.0,N,N,N,37.513054,127.022962
0,아파트,A01,우림빌(도시형),140981,19,1,20130819,16.36,26.71,0,0,0,0,0.0,N,N,N,37.507402,127.029313
0,아파트,A01,우림스타빌(도시형),147626,19,1,20160414,26.3,52.75,0,0,0,0,0.0,N,N,N,37.506228,127.026609
0,아파트,A01,우민,8774,70,1,20020812,99.54,105.8,120000,130000,60000,75000,0.0,N,N,N,37.51787,127.03739
0,아파트,A01,우성,25173,14,1,20040721,81.56,122.78,0,0,0,0,0.0,N,N,N,37.507577,127.028082
0,아파트,A01,월드노블레스빌,16231,12,1,20011023,142.17,195.72,200000,200000,0,0,0.0,N,N,N,37.513538,127.023141
0,아파트,A01,월드쉐르빌,105458,15,1,20030625,49.8,99.48,0,0,0,0,0.0,N,N,N,37.510284,127.026093
0,아파트,A01,은탑리더스카운티,106262,18,1,20030814,77.0,182.69,150000,195000,0,0,0.0,N,N,N,37.513292,127.023902
0,아파트,A01,이산,103299,10,1,20110429,55.18,76.95,65000,88000,36000,36000,0.0,N,N,N,37.507194,127.030722
0,아파트,A01,이움,107144,10,1,20050927,111.35,142.98,200000,200000,0,0,0.0,N,N,N,37.50924,127.034123
0,아파트,A01,제이빌,22667,32,1,20040427,43.08,113.06,76000,125000,62000,66000,0.0,N,N,N,37.518118,127.037832
0,아파트,A01,지고하임,24205,33,2,20031029,71.86,91.74,120000,130000,0,0,0.0,N,N,N,37.513713,127.023693
0,아파트,A01,진흥펠리체(도시형),151599,40,2,20151124,15.19,34.75,0,0,0,0,0.0,N,N,N,37.508478,127.031283
0,아파트,A01,청학,3042,70,3,19761230,87.15,99.65,148000,160000,45000,50000,0.0,N,N,N,37.520645,127.032822
0,아파트,A01,케럿스테이트,103371,16,1,20040414,103.64,193.94,180000,180000,0,0,0.0,N,N,N,37.512657,127.042178
0,아파트,A01,케이씨빌,106953,12,1,20041118,111.5,123.51,0,0,0,0,0.0,N,N,N,37.519018,127.038771
0,아파트,A01,테크노빌라트,10831,18,1,20020628,57.57,114.3,85000,88000,0,0,0.0,N,N,N,37.511222,127.040244
0,아파트,A01,토미빌(228-9),102051,24,3,20030224,155.16,161.26,200000,205000,100000,100000,0.0,N,N,N,37.508967,127.033855
0,아파트,A01,토미하우스(도시형),150539,14,1,20130411,16.67,41.18,0,0,0,0,0.0,N,N,N,37.511675,127.026371
0,아파트,A01,펜트힐루논현(도시형),127036,131,1,20210830,61.41,63.06,90000,145000,50000,85000,0.0,N,N,N,37.513806,127.035001
0,아파트,A01,프라임(196-4),25838,19,1,20060929,135.45,270.9,185000,200000,0,0,0.0,N,N,N,37.506589,127.028423
0,아파트,A01,프라임(80-13),24032,28,1,20040609,93.51,124.68,0,0,85000,85000,0.0,N,N,N,37.51623,127.030617
0,아파트,A01,"학동역이안테라디움(민간임대,도시형)",154452,54,1,20220923,34.01,38.98,0,0,0,0,0.0,N,N,N,37.513824,127.031222
0,아파트,A01,학동참진,22907,18,1,20050628,86.75,125.41,0,0,0,0,0.0,N,N,N,37.51262,127.03383
0,아파트,A01,한양빌라트,11608,19,1,19981123,115.34,179.68,150000,180000,0,0,0.0,N,N,N,37.517065,127.031307
0,아파트,A01,한양수자인어반게이트(도시형),105866,108,1,20130626,23.42,29.92,21000,22500,18000,21000,0.0,N,N,N,37.509749,127.033574
0,아파트,A01,현대넥서스(261-7),3043,18,1,20001005,128.29,254.09,400000,400000,120000,130000,0.0,N,N,N,37.511845,127.036533
0,아파트,A01,현대넥서스(261-8),9360,16,1,19971212,161.35,264.58,0,0,0,0,0.0,N,N,N,37.511596,127.036864
0,아파트,A01,현대인텔렉스(주상복합),9395,42,1,19970415,168.76,254.22,165000,950000,200000,280000,0.0,N,N,N,37.511673,127.036354
0,아파트,A01,휴먼스페이스(주상복합),25646,18,1,20030602,48.95,49.49,0,0,29500,32000,0.0,N,N,N,37.507676,127.033476
0,아파트,A01,힐스빌7차,103607,9,1,20030310,138.67,171.75,0,0,0,0,0.0,N,N,N,37.513274,127.022895
0,아파트,A01,힐타워,10788,16,1,20010628,93.47,187.15,145000,145000,0,0,0.0,N,N,N,37.512492,127.023086
0,아파트,A01,힐튼빌(도시형),144828,14,1,20130314,35.03,104.27,0,0,0,0,0.0,N,N,N,37.511114,127.040727
0,아파트,A01,S-타워(주상복합),16244,19,1,19960715,246.25,246.25,0,0,0,0,0.0,N,N,N,37.503447,127.065572
0,아파트,A01,"개포우성1,2차",65,1140,14,19831217,101.09,214.88,305000,560000,95000,220000,0.0,N,N,N,37.491425,127.059778
0,아파트,A01,노빌리티빌리지,11063,14,1,19991231,125.06,196.98,0,0,0,0,0.0,N,N,N,37.497441,127.060433
0,아파트,A01,대치SK뷰,111580,239,4,20170620,80.38,166.84,310000,390000,190000,200000,0.0,N,N,N,37.495967,127.060322
0,아파트,A01,대치대우아이빌멤버스4차(주상복합),10393,134,1,20031204,31.9,68.74,24000,37000,26500,40000,0.0,N,N,N,37.504642,127.053828
0,아파트,A01,대치대우아이빌명문가(주상복합),9906,210,1,20040223,41.88,66.93,32000,34000,27900,28300,0.0,N,N,N,37.505138,127.053901
0,아파트,A01,대치더블유타워(도시형),107810,149,1,20131114,33.22,52.72,0,0,0,0,0.0,N,N,N,37.505016,127.063471
0,아파트,A01,대치더클래스,152278,42,1,20220902,89.11,169.72,266000,266000,0,0,0.0,N,N,N,37.497342,127.060855
0,아파트,A01,대치롯데캐슬리베,22493,144,2,20080222,146.32,146.32,295000,310000,185000,200000,0.0,N,N,N,37.496298,127.053809
0,아파트,A01,대치르엘,127973,273,6,20210917,75.59,158.56,212000,300000,134000,180000,0.0,N,N,N,37.501638,127.064308
0,아파트,A01,대치삼성1차,135,960,14,20000731,85.68,139.27,180000,340000,85000,150000,0.0,N,N,N,37.496538,127.059121
0,아파트,A01,대치삼성2차,9782,19,1,19991025,188.75,188.75,0,0,0,0,0.0,N,N,N,37.497046,127.057614
0,아파트,A01,대치삼성3차,8994,35,2,20000229,99.97,240.86,0,0,0,0,0.0,N,N,N,37.497535,127.059855
0,아파트,A01,대치상지리츠빌카일룸,105210,15,1,20110909,225.33,268.23,0,0,490000,500000,0.0,N,N,N,37.501584,127.068208
0,아파트,A01,대치아이파크,19418,768,11,20080603,78.71,179.41,220000,450000,110000,450000,0.0,N,N,N,37.494754,127.054575
0,아파트,A01,대치우정에쉐르1(주상복합),13081,80,1,20040430,67.95,91.28,82000,100000,44000,70000,0.0,N,N,N,37.504627,127.054247
0,아파트,A01,대치우정에쉐르2(주상복합),19313,18,1,20040520,72.18,82.58,89000,89000,0,0,0.0,N,N,N,37.504308,127.052611
0,아파트,A01,대치주성,102955,14,1,20041027,73.97,136.31,160000,180000,0,0,0.0,N,N,N,37.50161,127.060109
0,아파트,A01,대치타워,123312,10,1,20030403,77.28,105.0,0,0,0,0,0.0,N,N,N,37.501743,127.058086
0,아파트,A01,대치푸르지오써밋,135597,489,9,202306,70.24,198.93,188000,420000,132000,175000,0.0,N,N,N,37.502438,127.060288
0,아파트,A01,대치풍림아이원1차,10297,57,3,20030828,91.49,167.94,170000,180000,85000,116000,0.0,N,N,N,37.501695,127.054872
0,아파트,A01,대치풍림아이원2차,13826,33,2,20031028,106.37,170.3,0,0,100000,210000,0.0,N,N,N,37.501362,127.054967
0,아파트,A01,대치풍림아이원3차,11620,42,1,20040701,134.72,139.43,0,0,0,0,0.0,N,N,N,37.504691,127.066834
0,아파트,A01,대치풍림아이원4차,11621,33,1,20040630,134.54,139.23,210000,240000,105000,150000,0.0,N,N,N,37.504258,127.066704
0,아파트,A01,대치하나빌,107149,12,1,20031025,163.48,225.69,260000,280000,165000,210000,0.0,N,N,N,37.497029,127.058482
0,아파트,A01,대치한신휴플러스,22573,66,1,20050426,85.9,105.97,210000,210000,100000,100000,0.0,N,N,N,37.501432,127.051392
0,아파트,A01,대치현대,971,630,8,19990614,88.68,143.66,170000,300000,68000,170000,0.0,N,N,N,37.500906,127.061068
0,아파트,A01,대치효성,3045,83,1,19990830,78.99,112.12,195000,200000,71000,105000,0.0,N,N,N,37.498894,126.673435
0,아파트,A01,더힐하우스(도시형),116437,44,4,20160616,36.26,70.89,100000,100000,53000,53000,0.0,N,N,N,37.499451,127.052869
0,아파트,A01,"동민맥스빌(A동,주상복합)",22149,30,1,20041227,107.48,109.26,135000,135000,0,0,0.0,N,N,N,37.497826,127.055588
0,아파트,A01,동민맥스빌(B동),101378,18,1,20041224,75.44,156.79,180000,180000,0,0,0.0,N,N,N,37.497945,127.05588
0,아파트,A01,동부센트레빌,8710,805,7,20050128,152.54,202.99,430000,550000,230000,350000,0.0,N,N,N,37.493104,127.055557
0,아파트,A01,동양,14104,19,1,19990111,110.57,186.81,0,0,74000,80000,0.0,N,N,N,37.499793,127.052577
0,아파트,A01,래미안대치팰리스1단지,107916,1278,13,20150922,88.0,150.66,325000,510000,145000,270000,0.0,N,N,N,37.494375,127.057833
0,아파트,A01,래미안대치팰리스2단지,107917,330,4,20150922,118.76,183.59,310000,550000,150000,320000,0.0,N,N,N,37.494936,127.061199
0,아파트,A01,래미안대치하이스턴,972,354,5,20140227,142.54,142.62,290000,300000,70000,170000,0.0,N,N,N,37.501371,127.065157
0,아파트,A01,로프트아파트먼트대치(도시형),125239,16,1,20190807,43.29,56.53,0,0,0,0,0.0,N,N,N,37.500705,127.051929
0,아파트,A01,롯데캐슬,3303,142,3,20020829,110.72,176.16,230000,310000,110000,180000,0.0,N,N,N,37.505115,127.056706
0,아파트,A01,메트로,102910,11,1,20020912,81.71,113.12,120000,120000,0,0,0.0,N,N,N,37.502997,127.055466
0,아파트,A01,미소시티,23612,18,1,20060705,164.77,200.9,0,0,130000,130000,0.0,N,N,N,37.502617,127.056398
0,아파트,A01,삼환SOGOOD(주상복합),19488,37,1,20061107,107.38,133.52,189000,190000,110000,110000,0.0,N,N,N,37.497556,127.055682
0,아파트,A01,"선경1,2차",154,1034,12,19831212,101.66,186.36,295000,500000,90000,190000,0.0,N,N,N,37.49228,127.062918
0,아파트,A01,선경3차,9005,54,1,19901015,85.48,85.48,185000,210000,0,0,0.0,N,N,N,37.494174,127.060947
0,아파트,A01,선릉역대우아이빌5차(주상복합),12231,150,1,20040428,27.45,58.95,22000,42000,24000,24000,0.0,N,N,N,37.504498,127.051602
0,아파트,A01,선릉역풍림아이원레몬(주상복합),15236,44,1,20060623,84.27,92.62,0,0,57000,70000,0.0,N,N,N,37.504226,127.051481
0,아파트,A01,세연파크뷰,15132,19,1,20020702,75.46,94.53,0,0,65000,68250,0.0,N,N,N,37.500147,127.058556
0,아파트,A01,세영팔래스,3304,67,1,20020122,73.77,103.37,165000,200000,100000,100000,0.0,N,N,N,37.50085,127.06214
0,아파트,A01,스카이써밋,17690,10,1,20040409,91.79,131.56,180000,180000,100000,120000,0.0,N,N,N,37.501137,127.058351
0,아파트,A01,스톤빌리지(도시형),162642,28,2,20161229,24.56,64.46,70000,70000,50000,50000,0.0,N,N,N,37.498747,127.05607
0,아파트,A01,스톤빌리지대치2차(도시형),128876,25,2,20180515,38.99,69.77,0,0,45000,59500,0.0,N,N,N,37.498846,127.056706
0,아파트,A01,스톤빌리지대치3차(도시형),126762,22,2,20180416,35.47,62.45,0,0,31500,61000,0.0,N,N,N,37.501121,127.054262
0,아파트,A01,스톤빌리지대치4차(도시형),127277,20,2,20190926,39.1,71.47,0,0,44000,44000,0.0,N,N,N,37.499847,127.055246
0,아파트,A01,아름빌,13148,43,1,20030630,45.97,105.58,27000,100000,42000,60000,0.0,N,N,N,37.5034,127.050632
0,아파트,A01,아크로빌,27002,14,2,20051025,61.53,112.33,110000,170000,100000,100000,0.0,N,N,N,37.497173,127.057315
0,아파트,A01,아티스톤(주상복합),148650,29,1,20221027,87.27,103.07,143000,155000,93000,120000,0.0,N,N,N,37.501061,127.051845
0,아파트,A01,우정에쉐르3,18946,19,1,20040602,103.62,154.02,0,0,0,0,0.0,N,N,N,37.506908,127.062328
0,아파트,A01,월드빌,102216,11,1,20040206,59.0,122.32,0,0,0,0,0.0,N,N,N,37.506594,127.062433
0,아파트,A01,청암빌라트,3047,18,1,19911129,144.05,179.57,250000,280000,0,0,0.0,N,N,N,37.49245,127.057171
0,아파트,A01,청원,22676,19,1,20050222,58.32,130.41,120000,150000,65000,95000,0.0,N,N,N,37.498433,127.056055
0,아파트,A01,테헤란로대우아이빌(주상복합),9579,371,1,20040429,38.72,89.17,33000,42000,32000,56000,0.0,N,N,N,37.505663,127.054222
0,아파트,A01,포스코더샵,11010,276,4,20040930,168.38,208.98,300000,370000,190000,210000,0.0,N,N,N,37.504102,127.057307
0,아파트,A01,하이캐슬,102325,67,2,20050128,104.13,191.61,175000,175000,148000,150000,0.0,N,N,N,37.500568,127.063855
0,아파트,A01,"한보미도맨션1,2차",105,2436,21,19831128,113.31,220.92,260000,520000,84000,195000,0.0,N,N,N,37.493541,127.067516
0,아파트,A01,한보미도맨션3차,11167,18,1,19901113,220.11,220.11,395000,395000,0,0,0.0,N,N,N,37.494596,127.061803
0,아파트,A01,한양팰리스,23995,14,1,20040109,111.2,120.97,0,0,0,0,0.0,N,N,N,37.499211,127.059755
0,아파트,A01,한티,24735,22,2,20040730,78.6,127.58,140000,140000,0,0,0.0,N,N,N,37.499028,127.057213
0,아파트,A01,현대,973,120,1,19900419,101.03,101.7,205000,205000,0,0,0.0,N,N,N,37.499994,127.065332
0,아파트,A01,현대썬앤빌테헤란(도시형),113852,49,1,20161020,54.56,82.49,59000,62000,50000,60000,0.0,N,N,N,37.504415,127.054758
0,아파트,A01,화인하이빌,24662,18,1,20040630,61.24,147.52,0,0,0,0,0.0,N,N,N,37.506477,127.062503
0,아파트,A01,개포럭키,271,128,2,19861027,102.41,102.41,215000,250000,0,0,0.0,N,N,N,37.486173,127.046304
0,아파트,A01,개포우성4차,276,459,8,19851226,113.23,180.25,280000,390000,95000,110000,0.0,N,N,N,37.485574,127.049184
0,아파트,A01,개포우성5차,294,180,4,19861027,89.79,98.96,190000,240000,58000,69000,0.0,N,N,N,37.486029,127.047425
0,아파트,A01,경남,3048,348,4,20050602,76.47,147.12,155000,200000,73000,120000,0.0,N,N,N,37.488679,127.040856
0,아파트,A01,그랜빌캐슬,103960,15,1,20030130,105.32,166.79,180000,180000,116000,120000,0.0,N,N,N,37.488801,127.044789
0,아파트,A01,극동스타클래스(주상복합),18522,96,1,20070302,141.4,258.38,180000,190000,0,0,0.0,N,N,N,37.485197,127.036016
0,아파트,A01,대림,315,197,2,19921119,102.39,104.47,180000,190000,75000,85000,0.0,N,N,N,37.486463,127.039867
0,아파트,A01,대림아크로빌(주상복합),974,490,2,19991126,56.9,230.18,150000,330000,130000,240000,0.0,N,N,N,37.488198,127.051147
0,아파트,A01,대명비발디,18975,18,1,20031004,46.53,102.21,115000,115000,0,0,0.0,N,N,N,37.489067,127.03436
0,아파트,A01,대우양재디오빌(주상복합),9808,155,1,20040423,32.11,43.76,24000,31000,25000,25000,0.0,N,N,N,37.486502,127.033545
0,아파트,A01,더힐(도시형),134332,11,1,19901229,26.65,44.42,0,0,0,0,0.0,N,N,N,37.484744,127.043447
0,아파트,A01,도곡그린빌,104408,19,1,19951230,63.77,127.4,0,0,0,0,0.0,N,N,N,37.486142,127.035834
0,아파트,A01,도곡렉슬,11698,3002,34,20060127,86.43,225.29,188000,500000,88000,280000,0.0,N,N,N,37.493869,127.050945
0,아파트,A01,도곡루아르(도시형),142590,29,1,20220404,64.32,66.68,90800,120000,70000,75000,0.0,N,N,N,37.490065,127.034403
0,아파트,A01,도곡삼성래미안,3040,732,10,20011201,81.35,158.1,185000,320000,80000,160000,0.0,N,N,N,37.489972,127.050406
0,아파트,A01,도곡상지카일룸,125149,23,1,20181224,255.19,275.56,690000,690000,0,0,0.0,N,N,N,37.487887,127.043927
0,아파트,A01,도곡스타빌,101240,15,1,20060915,59.17,104.14,0,0,48000,48000,0.0,N,N,N,37.484133,127.042565
0,아파트,A01,도곡스테이77(도시형),129662,77,1,20200302,31.15,44.58,0,0,30000,33000,0.0,N,N,N,37.485157,127.034931
0,아파트,A01,도곡쌍용예가,319,384,5,20150128,83.52,232.86,180000,390000,85000,140000,0.0,N,N,N,37.487588,127.038586
0,아파트,A01,도곡아이파크1차,19405,321,5,20070327,109.19,178.59,200000,280000,105000,160000,0.0,N,N,N,37.492403,127.043477
0,아파트,A01,도곡아이파크2차,19635,58,2,20060213,175.89,232.37,270000,320000,180000,180000,0.0,N,N,N,37.489234,127.037174
0,아파트,A01,도곡아이파크3차,23149,72,3,20070427,179.5,225.98,310000,320000,0,0,0.0,N,N,N,37.490178,127.037965
0,아파트,A01,도곡월드메르디앙,22912,29,2,20050331,118.58,208.38,0,0,0,0,0.0,N,N,N,37.487026,127.043727
0,아파트,A01,도곡월드메르디앙로즈하임,163697,48,2,202308,73.32,93.2,136000,153500,0,0,0.0,N,N,N,37.488616,127.039762
0,아파트,A01,도곡조이너스,26744,26,1,20080430,78.68,109.25,130000,140000,78000,78000,0.0,N,N,N,37.487154,127.035075
0,아파트,A01,도곡지웰카운티,102163,37,2,20100226,125.8,148.53,0,0,120000,122000,0.0,N,N,N,37.486376,127.043599
0,아파트,A01,도곡코오롱,159077,29,1,20230915,75.76,139.94,125000,199000,0,0,0.0,N,N,N,37.488218,127.039782
0,아파트,A01,도곡푸르지오1차,18674,17,1,20051226,185.04,208.44,200000,200000,0,0,0.0,N,N,N,37.487904,127.033199
0,아파트,A01,도곡푸르지오2차(주상복합),18686,13,1,20060703,185.43,185.43,0,0,115000,115000,0.0,N,N,N,37.487821,127.032884
0,아파트,A01,도곡하이빌,23152,12,1,20050722,76.23,156.39,115000,120000,0,0,0.0,N,N,N,37.485913,127.03759
0,아파트,A01,도곡한라비발디,109559,110,1,20160422,111.45,164.97,195000,310000,105000,120000,0.0,N,N,N,37.487738,127.039274
0,아파트,A01,도곡한신,408,421,5,19880716,79.5,135.75,163000,245000,62000,93000,0.0,N,N,N,37.487685,127.040609
0,아파트,A01,도곡현대하이페리온,13445,71,2,20040310,171.91,218.57,230000,290000,130000,165000,0.0,N,N,N,37.488775,127.03502
0,아파트,A01,도곡현대힐스테이트,15133,57,4,19960703,151.4,224.74,268000,270000,120000,140000,0.0,N,N,N,37.487835,127.045672
0,아파트,A01,동연빌(주상복합),23048,18,1,20010808,35.64,39.34,0,0,0,0,0.0,N,N,N,37.489016,127.040218
0,아파트,A01,라온빌(도시형),128403,11,1,20130521,20.79,56.27,0,0,0,0,0.0,N,N,N,37.490438,127.036289
0,아파트,A01,래미안도곡카운티,100559,397,8,20130226,81.57,132.86,214000,350000,115000,175000,0.0,N,N,N,37.495144,127.051069
0,아파트,A01,로덴하우스웨스트빌리지,101883,19,1,20091005,298.43,337.65,580000,600000,0,0,0.0,N,N,N,37.485462,127.046472
0,아파트,A01,로덴하우스이스트빌리지,101878,33,1,20091001,280.33,287.45,0,0,450000,450000,0.0,N,N,N,37.485699,127.046774
0,아파트,A01,롯데캐슬모닝,9869,60,2,20030830,105.37,177.25,185000,280000,140000,140000,0.0,N,N,N,37.490231,127.036776
0,아파트,A01,리치아르떼빌,102212,11,1,20031124,138.84,199.26,280000,280000,0,0,0.0,N,N,N,37.486451,127.043994
0,아파트,A01,매봉,334,132,1,19990106,70.84,100.61,140000,185000,65000,85000,0.0,N,N,N,37.489193,127.04872
0,아파트,A01,벨라빌,104016,14,1,20000919,101.28,265.33,220000,250000,0,0,0.0,N,N,N,37.486672,127.044534
0,아파트,A01,비스킷(도시형),148535,19,1,20130626,21.61,56.68,0,0,0,0,0.0,N,N,N,37.487463,127.03503
0,아파트,A01,삼성,3049,231,4,19941230,81.09,104.15,155000,190000,60000,85000,0.0,N,N,N,37.488551,127.046667
0,아파트,A01,신성빌리지,16293,16,2,19950705,119.94,131.9,0,0,0,0,0.0,N,N,N,37.487213,127.044538
0,아파트,A01,아카데미스위트(주상복합),9218,414,1,20041115,112.2,332.64,170000,350000,89000,220000,0.0,N,N,N,37.488828,127.051585
0,아파트,A01,양재SK허브프리모(주상복합),13237,176,1,20060118,47.19,98.16,41000,110000,35000,75000,0.0,N,N,N,37.485301,127.034443
0,아파트,A01,역삼럭키,329,1094,10,19951228,112.0,145.2,185000,250000,73000,125000,0.0,N,N,N,37.49061,127.040187
0,아파트,A01,우성리빙텔(주상복합),9120,39,1,19960906,150.71,169.35,185000,205000,100000,125000,0.0,N,N,N,37.488413,127.052653
0,아파트,A01,우성캐릭터199(주상복합),373,199,2,19981107,162.08,201.13,225000,300000,160000,160000,0.0,N,N,N,37.486489,127.051965
0,아파트,A01,우성캐릭터빌(주상복합),975,47,1,19980701,192.17,219.68,230000,235000,0,0,0.0,N,N,N,37.487058,127.051121
0,아파트,A01,울트라멤버스,13077,19,1,20031230,95.76,164.52,0,0,0,0,0.0,N,N,N,37.487689,127.046658
0,아파트,A01,원팰리스,18981,19,1,20030812,57.59,126.72,0,0,0,0,0.0,N,N,N,37.486226,127.034046
0,아파트,A01,이니그마빌Ⅲ,102822,14,1,20060512,265.22,270.31,450000,630000,350000,400000,0.0,N,N,N,37.487411,127.043416
0,아파트,A01,중명하니빌,825,111,1,19970407,31.88,64.37,38000,50000,20000,20000,0.0,N,N,N,37.485888,127.038958
0,아파트,A01,클래스원(민간임대),156127,10,2,20221205,58.74,118.48,99000,195000,0,0,0.0,N,N,N,37.487825,127.033725
0,아파트,A01,타워팰리스1차(주상복합),3038,1292,4,20021023,105.79,403.76,250000,1000000,140000,580000,0.0,N,N,N,37.488556,127.054664
0,아파트,A01,타워팰리스2차(주상복합),3039,813,2,20030228,92.87,326.18,200000,930000,145000,500000,0.0,N,N,N,37.489718,127.054661
0,아파트,A01,타워팰리스3차(주상복합),8819,480,1,20040419,160.73,314.94,330000,700000,170000,490000,0.0,N,N,N,37.487236,127.053041
0,아파트,A01,파크힐,103262,17,1,20051221,57.4,216.87,123000,123000,47000,47000,0.0,N,N,N,37.489881,127.036951
0,아파트,A01,포레스트빌,104148,4,1,20030516,145.61,160.22,0,0,0,0,0.0,N,N,N,37.487541,127.043946
0,아파트,A01,포스코트,3311,64,1,20020130,241.7,256.17,400000,450000,210000,250000,0.0,N,N,N,37.48783,127.04762
0,아파트,A01,플럼힐스,105306,5,1,20030801,260.67,334.12,230000,320000,0,0,0.0,N,N,N,37.487615,127.044115
0,아파트,A01,필로스,101960,8,1,20040106,115.57,233.97,130000,148000,0,0,0.0,N,N,N,37.48694,127.044282
0,아파트,A01,현대(도곡현대),424,211,3,19941230,102.54,102.54,163000,175000,70000,78000,0.0,N,N,N,37.489526,127.038719
0,아파트,A01,현대그린,427,171,1,20061019,96.61,96.91,165000,180000,0,0,0.0,N,N,N,37.48882,127.03935
0,아파트,A01,현대벨라하우스,16246,8,1,19961227,256.24,272.1,0,0,0,0,0.0,N,N,N,37.488591,127.045595
0,아파트,A01,현대비젼21(주상복합),8331,232,1,19991130,50.9,66.57,40000,65000,33000,37000,0.0,N,N,N,37.487314,127.051525
0,아파트,A01,현대아이리스,18978,17,1,20041108,100.52,157.81,170000,190000,0,0,0.0,N,N,N,37.489173,127.034133
0,아파트,A01,현대오티움,104826,18,1,19980211,219.69,262.63,0,0,230000,230000,0.0,N,N,N,37.487663,127.044533
0,아파트,A01,힐데스하임,16247,19,1,19980428,288.9,501.28,0,0,0,0,0.0,N,N,N,37.488087,127.044968
0,아파트,A01,LH삼성(도시형),140287,47,1,20130801,44.28,65.73,70000,70000,33000,35000,0.0,N,N,N,37.515499,127.064002
0,아파트,A01,SM드림빌,110247,16,1,20030305,58.04,94.35,0,0,0,0,0.0,N,N,N,37.513364,127.045958
0,아파트,A01,강변삼부,8404,48,1,20000901,100.64,135.66,0,0,130000,130000,0.0,N,N,N,37.517125,127.06565
0,아파트,A01,골든카운티,22913,19,1,20190111,96.69,190.65,320000,320000,85000,85000,0.0,N,N,N,37.516989,127.046446
0,아파트,A01,그라나다,122448,19,1,20021113,52.82,99.44,90000,120000,36000,48000,0.0,N,N,N,37.512687,127.049588
0,아파트,A01,네오블로썸,105839,12,1,20090220,115.01,115.01,0,0,85000,85000,0.0,N,N,N,37.512285,127.047352
0,아파트,A01,노블테라스,26112,10,1,20030710,137.92,228.01,300000,370000,0,0,0.0,N,N,N,37.511859,127.044812
0,아파트,A01,다우림하우스,102276,10,1,20060420,89.66,147.08,0,0,130000,150000,0.0,N,N,N,37.518986,127.061735
0,아파트,A01,동구싼타빌,101865,19,1,20040609,76.29,136.63,145000,155000,0,0,0.0,N,N,N,37.515189,127.062326
0,아파트,A01,동일파크스위트,22327,36,1,20070201,170.87,202.22,420000,500000,200000,250000,0.0,N,N,N,37.516389,127.065931
0,아파트,A01,래미안라클래시,127477,679,7,20210917,84.46,227.3,250000,630000,119000,280000,0.0,N,N,N,37.517476,127.050021
0,아파트,A01,래미안삼성1차(101동),17600,77,1,20051219,91.51,233.66,0,0,0,0,0.0,N,N,N,37.516501,127.063056
0,아파트,A01,래미안삼성1차(201동),23872,36,1,20060629,99.64,151.81,0,0,0,0,0.0,N,N,N,37.516736,127.064252
0,아파트,A01,"래미안삼성1차(301,302,303동)",23869,133,3,20060427,102.54,169.89,225000,330000,120000,120000,0.0,N,N,N,37.517015,127.064237
0,아파트,A01,래미안삼성1차(501~504동),23870,112,4,20051219,109.65,205.27,230000,450000,130000,200000,0.0,N,N,N,37.516062,127.063322
0,아파트,A01,래미안삼성2차,22861,275,8,20070525,115.07,226.39,260000,600000,95000,175000,0.0,N,N,N,37.515991,127.043301
0,아파트,A01,로프트원,120098,19,1,20020430,68.01,137.41,0,0,0,0,0.0,N,N,N,37.512702,127.049897
0,아파트,A01,롯데캐슬프레미어,18967,713,11,20070326,106.93,239.42,255000,600000,130000,300000,0.0,N,N,N,37.515662,127.0449
0,아파트,A01,미켈란147(주상복합),12230,67,1,20041119,101.54,239.48,180000,188000,92000,100000,0.0,N,N,N,37.513228,127.055948
0,아파트,A01,브라운스톤레전드(주상복합),27274,54,1,20090821,199.47,343.15,500000,600000,290000,300000,0.0,N,N,N,37.515451,127.042289
0,아파트,A01,삼부(101동),25531,43,1,19981203,81.68,141.16,230000,230000,58000,85000,0.0,N,N,N,37.517023,127.065199
0,아파트,A01,삼부(102동),101425,40,1,19981203,74.96,125.73,160000,160000,0,0,0.0,N,N,N,37.517417,127.064934
0,아파트,A01,삼부아그레빌,24074,67,1,20030607,90.63,125.95,0,0,0,0,0.0,N,N,N,37.517933,127.064102
0,아파트,A01,삼성SK뷰,18610,41,1,20051108,99.01,158.17,330000,360000,160000,250000,0.0,N,N,N,37.516281,127.064857
0,아파트,A01,삼성골든빌,10322,18,1,19990630,237.33,285.76,0,0,0,0,0.0,N,N,N,37.517824,127.065166
0,아파트,A01,삼성그랑빌,26511,14,1,20050218,96.86,113.75,0,0,0,0,0.0,N,N,N,37.510859,127.055017
0,아파트,A01,삼성금호어울림,9844,68,1,20031001,77.0,143.11,0,0,0,0,0.0,N,N,N,37.516812,127.064783
0,아파트,A01,삼성대성유니드,13441,59,1,20040701,97.5,105.01,150000,160000,70000,70000,0.0,N,N,N,37.50865,127.05402
0,아파트,A01,삼성대우멤버스카운티1차,13371,38,2,20040902,116.89,180.27,0,0,110000,110000,0.0,N,N,N,37.518215,127.064426
0,아파트,A01,삼성대우멤버스카운티2차,24053,17,1,20041130,140.68,195.45,380000,380000,127000,130000,0.0,N,N,N,37.513134,127.044298
0,아파트,A01,삼성대우멤버스카운티3차,24054,11,1,20051104,121.35,172.92,0,0,150000,150000,0.0,N,N,N,37.512837,127.044393
0,아파트,A01,삼성대우멤버스카운티5차,24049,17,1,20051104,136.06,143.17,280000,280000,130000,145000,0.0,N,N,N,37.512844,127.044042
0,아파트,A01,삼성대유리채(도시형),105056,65,1,20120204,21.73,61.62,0,0,0,0,0.0,N,N,N,37.510984,127.053646
0,아파트,A01,삼성더파크뷰,16299,12,1,19970130,215.58,215.58,350000,360000,0,0,0.0,N,N,N,37.51047,127.046945
0,아파트,A01,삼성드림하우스,13164,18,1,20030626,93.58,135.68,0,0,80000,90000,0.0,N,N,N,37.5135,127.049497
0,아파트,A01,삼성디뷰더센트럴(도시형),144029,27,1,20230314,39.99,50.07,0,0,0,0,0.0,N,N,N,37.50609,127.052046
0,아파트,A01,삼성라테라스,107803,18,1,20130605,139.86,243.27,430000,1200000,270000,450000,0.0,N,N,N,37.515549,127.065772
0,아파트,A01,삼성롯데,428,339,3,20000415,79.36,122.6,160000,240000,92000,92000,0.0,N,N,N,37.518,127.048784
0,아파트,A01,삼성롯데캐슬킹덤,14950,118,3,20051129,122.25,207.63,220000,275000,140000,160000,0.0,N,N,N,37.512829,127.047775
0,아파트,A01,삼성루첸시아,104355,10,1,20070702,60.23,129.09,0,0,0,0,0.0,N,N,N,37.517293,127.052741
0,아파트,A01,삼성리치빌(주상복합),13609,48,1,20030321,100.73,100.73,155000,160000,70000,75000,0.0,N,N,N,37.518497,127.051147
0,아파트,A01,삼성미켈란107(주상복합),10119,64,1,20031231,99.79,99.79,194000,195000,85000,90000,0.0,N,N,N,37.514726,127.060793
0,아파트,A01,삼성벨라스,13113,19,1,20020918,156.64,185.99,260000,260000,115000,115000,0.0,N,N,N,37.514318,127.045867
0,아파트,A01,삼성벽산블루밍,24331,26,2,20060210,97.47,174.24,370000,370000,230000,250000,0.0,N,N,N,37.517343,127.052299
0,아파트,A01,삼성브르넨(주상복합),128640,22,1,202110,41.28,162.84,300000,330000,220000,240000,0.0,N,N,N,37.516772,127.059462
0,아파트,A01,삼성센트럴아이파크,111332,416,4,20180330,74.23,220.74,230000,600000,89000,240000,0.0,N,N,N,37.515496,127.051194
0,아파트,A01,삼성신도브래뉴(주상복합),102947,21,1,20100616,102.98,163.81,160000,210000,0,0,0.0,N,N,N,37.510378,127.053394
0,아파트,A01,삼성씨엘케이,13908,12,1,20020527,99.47,99.47,0,0,0,0,0.0,N,N,N,37.517541,127.044367
0,아파트,A01,삼성아셈,17497,18,1,20031202,62.9,125.13,0,0,85000,85000,0.0,N,N,N,37.515114,127.06201
0,아파트,A01,삼성아펠바움,26445,17,1,20080218,282.73,313.63,750000,750000,0,0,0.0,N,N,N,37.51804,127.065073
0,아파트,A01,삼성오네뜨,17846,48,2,20040324,162.61,178.71,220000,280000,120000,170000,0.0,N,N,N,37.509522,127.05449
0,아파트,A01,삼성우림루미아트,14292,40,1,20050204,117.5,165.44,200000,205000,0,0,0.0,N,N,N,37.513927,127.054333
0,아파트,A01,삼성우정에쉐르II(주상복합),22340,60,1,20041203,66.26,71.83,100000,100000,53000,65000,0.0,N,N,N,37.507055,127.05477
0,아파트,A01,삼성월드타워,13442,46,1,19970922,66.98,96.55,140000,178000,54000,60000,0.0,N,N,N,37.517457,127.044062
0,아파트,A01,삼성웰피아,23698,19,1,20050629,104.91,120.23,0,0,70000,75000,0.0,N,N,N,37.50847,127.053655
0,아파트,A01,삼성이안파크,14705,19,1,20040507,102.03,130.74,180000,180000,0,0,0.0,N,N,N,37.508594,127.053439
0,아파트,A01,삼성중앙하이츠빌리지,9685,298,5,20041229,83.93,192.66,206000,400000,93000,200000,0.0,N,N,N,37.516113,127.04615
0,아파트,A01,삼성지웰팰리스(주상복합),24362,16,1,20051222,103.53,264.51,320000,320000,0,0,0.0,N,N,N,37.511477,127.048867
0,아파트,A01,삼성파크,3312,114,1,20011217,121.5,162.21,0,0,0,0,0.0,N,N,N,37.509201,127.053816
0,아파트,A01,삼성파크엘나인(주상복합),130764,4,1,20210805,35.88,108.08,0,0,0,0,0.0,N,N,N,37.5107,127.046758
0,아파트,A01,삼성팰리스(71-16),25648,19,1,20061009,99.26,136.65,0,0,0,0,0.0,N,N,N,37.514396,127.053343
0,아파트,A01,삼성펠리스(129-5),101493,18,1,20051216,90.02,187.6,285000,285000,170000,170000,0.0,N,N,N,37.508692,127.054444
0,아파트,A01,삼성포스코더샵(주상복합),10828,72,1,20030820,176.54,242.66,350000,350000,160000,300000,0.0,N,N,N,37.513084,127.054932
0,아파트,A01,삼성풍림2차,8436,112,1,19981224,54.6,126.74,172000,200000,62000,80000,0.0,N,N,N,37.51637,127.062481
0,아파트,A01,삼성한일,3313,127,1,20011227,83.55,108.27,185000,185000,73000,78000,0.0,N,N,N,37.514107,127.049817
0,아파트,A01,삼성헤렌하우스2,103038,33,2,20101228,133.03,273.46,410000,410000,260000,350000,0.0,N,N,N,37.51936,127.061176
0,아파트,A01,삼성현대1차,23813,19,1,20051222,176.36,230.61,270000,270000,125000,155000,0.0,N,N,N,37.519085,127.054935
0,아파트,A01,삼성현대2차,24703,11,1,20060530,128.29,174.5,0,0,0,0,0.0,N,N,N,37.519218,127.05583
0,아파트,A01,삼성힐스테이트1단지,24009,1144,17,20081210,41.4,144.26,104000,380000,45000,175000,0.0,N,N,N,37.516721,127.048834
0,아파트,A01,삼성힐스테이트2단지,24008,926,12,20081210,51.81,111.25,140000,310000,63000,120000,0.0,N,N,N,37.514112,127.051582
0,아파트,A01,상아빌라트,13818,17,1,19980727,189.41,290.16,0,0,140000,140000,0.0,N,N,N,37.513004,127.04973
0,아파트,A01,상지리츠빌카일룸,106726,13,1,20120727,287.46,333.74,650000,650000,450000,500000,0.0,N,N,N,37.516906,127.051694
0,아파트,A01,서광,473,304,2,19981106,77.04,104.43,162000,210000,72000,95000,0.0,N,N,N,37.517041,127.04271
0,아파트,A01,석탑,482,139,1,19960408,80.92,106.24,153000,195000,63000,90000,0.0,N,N,N,37.517572,127.044875
0,아파트,A01,"선릉LG에클라트(A동,주상복합)",11464,125,1,20030728,45.07,65.27,33000,43000,29000,30000,0.0,N,N,N,37.506572,127.05075
0,아파트,A01,"선릉LG에클라트(B동,주상복합)",11465,293,1,20040622,47.44,77.44,32500,85000,27500,55000,0.0,N,N,N,37.506096,127.050926
0,아파트,A01,세방타운하우스,10929,14,1,19980923,100.53,148.14,0,0,117000,130000,0.0,N,N,N,37.517465,127.052863
0,아파트,A01,신동아듀크빌,100206,17,1,20001130,264.44,300.64,0,0,0,0,0.0,N,N,N,37.517437,127.06525
0,아파트,A01,심포니하우스,103992,19,1,19980624,190.66,264.54,0,0,0,0,0.0,N,N,N,37.516369,127.052119
0,아파트,A01,쌍용플래티넘(주상복합),12229,88,2,20031201,147.32,188.65,260000,285000,140000,150000,0.0,N,N,N,37.512403,127.051932
0,아파트,A01,씨티빌,3051,38,2,19921211,181.63,305.35,250000,350000,120000,130000,0.0,N,N,N,37.518959,127.063987
0,아파트,A01,아델하우스,101725,14,1,20080904,210.21,226.56,700000,700000,0,0,0.0,N,N,N,37.516965,127.052383
0,아파트,A01,아르헤타워(도시형),113209,20,1,20160714,39.84,43.17,60000,75000,50000,50000,0.0,N,N,N,37.511953,127.048691
0,아파트,A01,아셈(150-5),102764,19,1,20060328,74.72,168.02,0,0,0,0,0.0,N,N,N,37.511653,127.055052
0,아파트,A01,아이파크삼성,12826,449,3,20040318,182.87,345.15,560000,1800000,300000,700000,0.0,N,N,N,37.51818,127.05906
0,아파트,A01,영무예다음,24080,45,2,20060601,105.72,135.18,180000,190000,70000,70000,0.0,N,N,N,37.51043,127.05234
0,아파트,A01,우정에쉐르,8869,40,1,20030603,109.43,151.46,0,0,115000,115000,0.0,N,N,N,37.51718,127.044281
0,아파트,A01,월성빌라트,109001,19,1,19940601,115.14,212.52,0,0,0,0,0.0,N,N,N,37.516165,127.061612
0,아파트,A01,위레벤646(도시형),143377,63,1,20210624,49.5,161.15,158200,191400,0,0,0.0,N,N,N,37.519595,127.057879
0,아파트,A01,이안애2차,102728,19,1,20041007,72.06,133.37,162000,162000,0,0,0.0,N,N,N,37.508119,127.053784
0,아파트,A01,진흥,100285,255,3,19840718,110.92,221.01,240000,600000,75000,170000,0.0,N,N,N,37.519107,127.053193
0,아파트,A01,채널리저브(주상복합),17539,78,1,20070102,103.86,182.83,175000,180000,112500,112500,0.0,N,N,N,37.507998,127.055539
0,아파트,A01,청구,565,167,3,19920515,104.76,104.76,210000,245000,70000,82000,0.0,N,N,N,37.52004,127.058283
0,아파트,A01,푸른솔,8993,61,1,19960426,82.24,198.11,148000,175000,58000,85000,0.0,N,N,N,37.517843,127.046105
0,아파트,A01,풍림,10980,36,1,19970704,58.04,76.32,70000,80000,0,0,0.0,N,N,N,37.508061,127.054384
0,아파트,A01,풍림1차,873,252,1,19980727,71.19,141.23,157000,250000,65000,100000,0.0,N,N,N,37.515533,127.061485
0,아파트,A01,프레스티지(도시형),116863,16,1,20170412,34.51,39.51,0,0,0,0,0.0,N,N,N,37.512389,127.050074
0,아파트,A01,한솔,570,263,2,19981116,55.98,147.81,145000,230000,55000,100000,0.0,N,N,N,37.517557,127.045833
0,아파트,A01,한양립스(주상복합),137413,28,1,20220114,43.5,43.5,66000,79000,38000,55000,0.0,N,N,N,37.506294,127.0518
0,아파트,A01,현대,624,198,1,19990416,45.92,144.33,154000,161000,72000,85000,0.0,N,N,N,37.516841,127.044704
0,아파트,A01,현대빌라트,101492,14,1,20041116,88.43,182.1,0,0,80000,80000,0.0,N,N,N,37.511985,127.051564
0,아파트,A01,현대타워(주상복합),17676,30,1,19980701,187.05,187.05,270000,270000,130000,180000,0.0,N,N,N,37.506249,127.053118
0,아파트,A01,형우,11431,19,1,20030722,207.03,259.54,430000,480000,0,0,0.0,N,N,N,37.51759,127.052681
0,아파트,A01,호산프라자(주상복합),14108,41,1,19971223,27.83,50.49,35000,35000,0,0,0.0,N,N,N,37.510951,127.043953
0,아파트,A01,강남LH1단지(e편한세상),103602,809,12,20130612,81.83,115.97,115000,160000,50000,80000,0.0,N,N,N,37.466828,127.102801
0,아파트,A01,강남데시앙파크,103252,546,15,20111101,108.54,145.53,115000,205000,60000,90000,0.0,N,N,N,37.460324,127.101224
0,아파트,A01,강남신동아파밀리에1단지,102668,395,6,20110223,86.88,86.89,105000,120000,55000,60000,0.0,N,N,N,37.464316,127.100522
0,아파트,A01,강남신동아파밀리에2단지,102669,410,7,20110223,115.82,116.72,130000,130000,65000,65000,0.0,N,N,N,37.464302,127.102913
0,아파트,A01,강남효성해링턴코트,109022,199,11,20160428,114.4,158.52,210000,330000,120000,140000,0.0,N,N,N,37.468165,127.094963
0,아파트,A01,세곡리엔파크3단지,102670,363,7,20110223,118.44,118.44,150000,150000,0,0,0.0,N,N,N,37.463948,127.104478
0,아파트,A01,세곡푸르지오,103578,912,16,20120831,80.22,113.85,120000,190000,68000,85000,0.0,N,N,N,37.466781,127.0935
0,아파트,A01,강남더샵포레스트,108822,400,10,20160727,142.83,304.33,280000,800000,150000,200000,0.0,N,N,N,37.481313,127.095211
0,아파트,A01,강남데시앙포레,107799,787,14,20140805,81.54,160.38,138000,250000,70000,135000,0.0,N,N,N,37.480907,127.090167
0,아파트,A01,까치마을,641,1404,7,19930908,49.01,70.45,84000,125000,28000,50000,0.0,N,N,N,37.48499,127.087816
0,아파트,A01,동익,657,330,4,19931126,73.13,101.82,130000,165000,75000,80000,0.0,N,N,N,37.485648,127.096437
0,아파트,A01,삼성,8203,680,12,19971101,77.56,104.74,147000,187000,68000,90000,0.0,N,N,N,37.485041,127.090146
0,아파트,A01,삼익,668,645,5,19921028,68.72,115.17,120000,180000,52000,79000,0.0,N,N,N,37.489383,127.100632
0,아파트,A01,수서한아름,696,498,7,19931101,120.76,188.79,170000,280000,90000,110000,0.0,N,N,N,37.489332,127.103414
0,아파트,A01,신동아,671,1162,8,19921028,49.0,69.85,88000,130000,29000,42000,0.0,N,N,N,37.487807,127.098401
0,아파트,A01,강남상가아파트(주상복합),8317,94,1,19741121,39.01,159.41,82000,170000,33000,64000,0.0,N,N,N,37.51879,127.02054
0,아파트,A01,금광아크존(주상복합),24387,39,1,20040908,67.68,124.52,68000,125000,47250,67000,0.0,N,N,N,37.526553,127.034579
0,아파트,A01,뉴현대,109797,10,1,20040901,68.15,129.27,150000,150000,0,0,0.0,N,N,N,37.523553,127.023734
0,아파트,A01,닛시빌라트,16452,19,1,20021227,88.33,195.48,165000,500000,0,0,0.0,N,N,N,37.525938,127.034326
0,아파트,A01,대성아트빌,11082,19,1,20021128,58.71,100.6,0,0,0,0,0.0,N,N,N,37.519583,127.024342
0,아파트,A01,대원칸타빌,9921,130,2,20010720,85.08,144.14,117000,200000,0,0,0.0,N,N,N,37.527501,127.037101
0,아파트,A01,래미안신사,3052,63,1,20081006,113.06,113.06,200000,250000,125000,140000,0.0,N,N,N,37.520214,127.019841
0,아파트,A01,로데오현대,826,139,1,19981116,73.95,122.28,115000,180000,0,0,0.0,N,N,N,37.52667,127.0373
0,아파트,A01,루덴하우스,103934,19,1,20070425,88.73,102.99,120000,130000,0,0,0.0,N,N,N,37.521553,127.021599
0,아파트,A01,리갈팰리스,26540,15,1,20071101,184.74,275.45,280000,280000,0,0,0.0,N,N,N,37.523691,127.030645
0,아파트,A01,신사빌라트1,118231,9,1,20020903,26.77,163.98,0,0,0,0,0.0,N,N,N,37.520258,127.023474
0,아파트,A01,신사씨티빌,13521,17,1,20020123,51.8,164.21,75000,75000,42000,42000,0.0,N,N,N,37.521059,127.020693
0,아파트,A01,신사아이빌,13786,19,1,20060615,94.27,127.8,0,0,0,0,0.0,N,N,N,37.520765,127.019992
0,아파트,A01,신사아크존2,101387,14,1,20051108,105.52,146.53,0,0,0,0,0.0,N,N,N,37.524782,127.030687
0,아파트,A01,신사파크빌,106263,28,2,20040910,104.48,146.45,0,0,95000,100000,0.0,N,N,N,37.520494,127.026489
0,아파트,A01,신성,11031,55,1,19961004,77.96,106.65,0,0,60000,90000,0.0,N,N,N,37.526377,127.031877
0,아파트,A01,알파임하우스,107486,19,1,20020328,234.64,267.95,0,0,0,0,0.0,N,N,N,37.525323,127.035149
0,아파트,A01,압구정KCC,19615,27,1,20040830,127.36,127.36,255000,260000,0,0,0.0,N,N,N,37.526148,127.03248
0,아파트,A01,압구정심포니(도시형),119989,20,1,20110201,19.33,26.14,0,0,0,0,0.0,N,N,N,37.523194,127.029994
0,아파트,A01,압구정아인빌,103116,14,1,20070529,104.58,158.37,180000,180000,0,0,0.0,N,N,N,37.521481,127.029248
0,아파트,A01,압구정하이츠파크,9428,86,2,20040420,234.38,372.31,620000,1300000,0,0,0.0,N,N,N,37.523842,127.033697
0,아파트,A01,우찬,104710,19,1,20040117,25.04,156.12,78000,78000,0,0,0.0,N,N,N,37.523707,127.023834
0,아파트,A01,유로미,19462,38,2,20040219,98.0,211.12,0,0,0,0,0.0,N,N,N,37.522491,127.02282
0,아파트,A01,장자울,19107,18,1,20040323,84.01,118.1,170000,170000,70000,77000,0.0,N,N,N,37.522518,127.029732
0,아파트,A01,진흥아마란스,17768,17,1,20050323,106.19,226.36,300000,300000,0,0,0.0,N,N,N,37.523703,127.031052
0,아파트,A01,천지인수지빌,124927,15,1,20030205,44.3,86.09,0,0,0,0,0.0,N,N,N,37.52022,127.021389
0,아파트,A01,청림쉐르빌,114403,11,1,20041119,58.69,99.28,105000,105000,0,0,0.0,N,N,N,37.520647,127.024805
0,아파트,A01,체리빌,24282,11,1,20031210,90.57,151.42,0,0,0,0,0.0,N,N,N,37.523818,127.024115
0,아파트,A01,토미,22990,13,1,20040315,99.95,102.68,110000,170000,0,0,0.0,N,N,N,37.522252,127.029871
0,아파트,A01,하얏트빌,110828,15,1,20050506,52.62,92.92,0,0,0,0,0.0,N,N,N,37.521824,127.023825
0,아파트,A01,한양,107857,12,1,20030905,72.44,115.89,0,0,50000,50000,0.0,N,N,N,37.52194,127.025905
0,아파트,A01,현대맨션,12990,126,19,19801230,120.35,218.17,550000,690000,130000,130000,0.0,N,N,N,37.525034,127.029564
0,아파트,A01,현대썬앤빌(도시형),111526,47,1,20150209,27.74,54.24,0,0,0,0,0.0,N,N,N,37.52112,127.031368
0,아파트,A01,현대아인빌,106952,19,1,20040323,113.03,189.64,180000,180000,0,0,0.0,N,N,N,37.523727,127.026277
0,아파트,A01,화이트빌,107191,12,1,20030422,53.33,97.32,0,0,0,0,0.0,N,N,N,37.521804,127.029074
0,아파트,A01,대림빌라트,107189,19,1,19981027,209.6,254.46,0,0,0,0,0.0,N,N,N,37.530862,127.027124
0,아파트,A01,미성1차,728,322,3,19821118,111.97,193.09,330000,600000,79000,170000,0.0,N,N,N,37.525563,127.020506
0,아파트,A01,미성2차,742,911,9,19871205,95.27,163.56,270000,500000,70000,140000,0.0,N,N,N,37.523985,127.019316
0,아파트,A01,한양2차,496,296,5,19780916,160.57,286.35,550000,630000,140000,200000,0.0,N,N,N,37.529834,127.04034
0,아파트,A01,한양3차,497,312,5,19781130,127.07,176.43,400000,560000,90000,100000,0.0,N,N,N,37.529367,127.038299
0,아파트,A01,한양5차,499,343,4,19791113,108.26,168.46,340000,545000,80000,130000,0.0,N,N,N,37.529063,127.041946
0,아파트,A01,한양8차,502,90,1,19840614,208.37,224.21,720000,850000,0,0,0.0,N,N,N,37.529975,127.042172
0,아파트,A01,"현대10,13,14차",514,766,10,19870421,96.49,164.59,400000,450000,69000,180000,0.0,N,N,N,37.530775,127.026251
0,아파트,A01,현대3차,705,432,4,19761104,108.88,108.94,335000,400000,60000,85000,0.0,N,N,N,37.532421,127.032727
0,아파트,A01,현대4차,495,170,6,19770712,140.26,140.7,560000,600000,110000,150000,0.0,N,N,N,37.532709,127.030483
0,아파트,A01,현대5차,708,224,2,19771221,113.96,113.96,420000,420000,75000,85000,0.0,N,N,N,37.532062,127.028466
0,아파트,A01,"현대6,7차",724,1288,15,19780921,156.13,264.87,490000,1300000,130000,350000,0.0,N,N,N,37.530219,127.028999
0,아파트,A01,현대65동(대림아크로빌),27498,56,1,19790628,269.57,282.65,0,0,400000,400000,0.0,N,N,N,37.531534,127.032195
0,아파트,A01,현대빌라트,114923,19,1,19960829,203.03,242.42,730000,730000,180000,180000,0.0,N,N,N,37.530497,127.027349
0,아파트,A01,D&S리치빌(도시형),106852,49,1,20130430,23.86,33.54,0,0,0,0,0.0,N,N,N,37.503062,127.040016
0,아파트,A01,K타워(도시형),105868,33,1,20140430,25.98,26.34,0,0,0,0,0.0,N,N,N,37.504493,127.044318
0,아파트,A01,SK허브젠(주상복합),19658,56,1,20050823,87.97,108.4,158000,170000,0,0,0.0,N,N,N,37.493698,127.030942
0,아파트,A01,"강남IBC(민간임대,도시형)",122378,137,1,19870108,33.99,142.03,0,0,0,0,0.0,N,N,N,37.499817,127.031116
0,아파트,A01,강남서해그랑블(주상복합),102310,68,1,20120831,77.84,113.16,90000,165000,57000,84000,0.0,N,N,N,37.493134,127.039216
0,아파트,A01,강남센트럴아이파크,127482,499,5,202204,79.27,218.91,290000,490000,125000,230000,0.0,N,N,N,37.500586,127.045793
0,아파트,A01,강남역우정에쉐르(주상복합),22025,52,1,20040305,23.63,37.58,20000,22500,0,0,0.0,N,N,N,37.498457,127.032249
0,아파트,A01,강남역이스턴(도시형),108510,98,1,20140623,23.0,23.77,16500,19500,16200,17700,0.0,N,N,N,37.498557,127.033503
0,아파트,A01,강남웅진베어스빌(도시형),120503,25,1,20191119,25.04,28.94,38500,43000,0,0,0.0,N,N,N,37.490169,127.032854
0,아파트,A01,강남한솔,104039,12,1,20060103,58.43,86.13,0,0,48000,48000,0.0,N,N,N,37.492762,127.037784
0,아파트,A01,개나리SK뷰,103376,240,3,20120817,112.96,160.22,280000,380000,150000,155000,0.0,N,N,N,37.501728,127.050099
0,아파트,A01,개나리래미안,18213,438,7,20060831,77.36,184.38,203000,350000,120000,195000,0.0,N,N,N,37.498452,127.046103
0,아파트,A01,개나리푸르지오,17528,332,5,20060814,79.81,184.22,220000,385000,105000,190000,0.0,N,N,N,37.499871,127.049987
0,아파트,A01,갤러리빌,15905,32,4,20030610,66.15,72.83,0,0,50000,54000,0.0,N,N,N,37.506858,127.038226
0,아파트,A01,갤러리아트,102690,15,1,20021231,38.37,146.93,0,0,40000,70000,0.0,N,N,N,37.494207,127.043703
0,아파트,A01,갤러리하우스,11071,17,1,20021218,64.54,93.86,125000,125000,0,0,0.0,N,N,N,37.494531,127.043586
0,아파트,A01,거평,16456,19,1,19960723,206.87,271.32,220000,250000,130000,130000,0.0,N,N,N,37.492129,127.037498
0,아파트,A01,경남,3314,164,1,20020501,110.85,117.5,150000,175000,85000,90000,0.0,N,N,N,37.500895,127.041695
0,아파트,A01,경일역삼,16464,17,1,20020617,94.35,163.02,0,0,80000,80000,0.0,N,N,N,37.496146,127.042025
0,아파트,A01,공간쉐르빌,102534,17,1,20030110,48.85,93.3,0,0,35000,35000,0.0,N,N,N,37.494233,127.043589
0,아파트,A01,광평하우스빌,104566,16,1,19970718,30.48,57.42,0,0,0,0,0.0,N,N,N,37.491566,127.035787
0,아파트,A01,금호어울림,9123,183,3,20031202,103.7,156.18,169000,240000,0,0,0.0,N,N,N,37.492196,127.034603
0,아파트,A01,꿈꾸지오(691-5),127857,16,1,20180321,28.03,35.11,0,0,0,0,0.0,N,N,N,37.506106,127.042786
0,아파트,A01,꿈꾸지오(697-23),127859,16,1,20161104,25.97,32.34,0,0,0,0,0.0,N,N,N,37.506274,127.044981
0,아파트,A01,"꿈꾸지오(698-6,도시형)",127954,20,1,20170809,30.63,36.89,0,0,0,0,0.0,N,N,N,37.506084,127.043774
0,아파트,A01,"꿈꾸지오(751-4,도시형)",127838,20,1,20160913,27.13,32.36,0,0,0,0,0.0,N,N,N,37.494881,127.034869
0,아파트,A01,"꿈꾸지오(774-27,도시형)",127959,22,1,20181002,25.26,35.67,0,0,0,0,0.0,N,N,N,37.496812,127.043559
0,아파트,A01,"꿈꾸지오(794-21,도시형)",127960,24,1,20190610,20.71,31.84,0,0,0,0,0.0,N,N,N,37.49265,127.037445
0,아파트,A01,네스빌,16462,9,1,19960522,245.45,259.51,210000,232000,0,0,0.0,N,N,N,37.498271,127.040064
0,아파트,A01,노블스위트,24263,19,1,20031230,78.96,101.95,105000,105000,0,0,0.0,N,N,N,37.496174,127.037311
0,아파트,A01,뉴엠,13518,8,1,20020222,161.97,251.31,0,0,0,0,0.0,N,N,N,37.500288,127.029313
0,아파트,A01,다사랑빌(도시형),146664,11,1,20120703,20.32,47.03,0,0,0,0,0.0,N,N,N,37.493865,127.034071
0,아파트,A01,다올2차(도시형),152778,16,1,20190515,31.95,37.91,0,0,0,0,0.0,N,N,N,37.496516,127.036608
0,아파트,A01,대림역삼,977,129,1,19971001,78.01,111.09,145000,210000,82000,90000,0.0,N,N,N,37.49632,127.04647
0,아파트,A01,대명벨리온(도시형),104259,71,1,20120215,21.12,46.69,27000,27000,0,0,0.0,N,N,N,37.497964,127.039165
0,아파트,A01,대우디오빌플러스(주상복합),13118,168,1,20040525,46.72,59.69,32000,45500,34100,34100,0.0,N,N,N,37.497456,127.031052
0,아파트,A01,더클래스(도시형),147559,14,1,20220111,35.21,69.74,0,0,0,0,0.0,N,N,N,37.497197,127.036502
0,아파트,A01,더프라나역삼(도시형),148131,16,1,20211115,26.85,37.55,0,0,0,0,0.0,N,N,N,37.495604,127.043602
0,아파트,A01,동부센트레빌,588,206,1,19980421,77.83,110.66,180000,215000,80000,95000,0.0,N,N,N,37.50256,127.049364
0,아파트,A01,동원스위트뷰역삼,119065,28,1,20171218,84.46,119.93,120000,190000,85000,110000,0.0,N,N,N,37.496877,127.037138
0,아파트,A01,디오빌역삼(주상복합),3315,457,1,20020625,39.58,112.01,31000,150000,24000,60000,0.0,N,N,N,37.501445,127.042887
0,아파트,A01,뜨라네(828-21),25843,15,1,20050802,68.99,106.58,90000,97000,64000,65000,0.0,N,N,N,37.497543,127.03286
0,아파트,A01,뜨라네(828-76),102136,18,1,20051007,36.66,127.3,0,0,0,0,0.0,N,N,N,37.497454,127.033053
0,아파트,A01,래미안그레이튼2차,837,464,5,20100610,86.0,154.96,193000,390000,115000,230000,0.0,N,N,N,37.4952,127.047241
0,아파트,A01,래미안그레이튼3차,394,476,8,20091228,85.64,172.22,193000,370000,95000,180000,0.0,N,N,N,37.496731,127.048307
0,아파트,A01,래미안펜타빌,22386,288,5,20071130,161.43,185.97,310000,395000,150000,190000,0.0,N,N,N,37.500825,127.047588
0,아파트,A01,런던빌(도시형),154700,17,1,20191021,31.38,51.48,0,0,0,0,0.0,N,N,N,37.493587,127.039499
0,아파트,A01,로얄빌리지,11739,19,2,20021125,61.04,151.85,90000,153000,0,0,0.0,N,N,N,37.501494,127.03454
0,아파트,A01,로얄팰리스,102724,15,1,20031229,106.45,200.13,200000,200000,0,0,0.0,N,N,N,37.502664,127.031086
0,아파트,A01,루미하우스(도시형),146231,24,1,20131031,23.08,34.82,0,0,0,0,0.0,N,N,N,37.502093,127.031395
0,아파트,A01,루트원레지던스(도시형),105999,28,1,20121224,24.4,69.52,0,0,18500,35600,0.0,N,N,N,37.504513,127.044589
0,아파트,A01,리치타워,16461,19,1,19960120,97.23,153.88,0,0,0,0,0.0,N,N,N,37.505405,127.030123
0,아파트,A01,명인갤러리1차,11087,14,1,20020923,76.86,95.31,115000,115000,0,0,0.0,N,N,N,37.498613,127.042584
0,아파트,A01,명인갤러리2차,22733,14,1,20041122,137.16,137.68,175000,180000,0,0,0.0,N,N,N,37.4976,127.042316
0,아파트,A01,베르사이유,102702,16,1,20031101,126.56,149.2,0,0,0,0,0.0,N,N,N,37.499391,127.039588
0,아파트,A01,베스젠빌,17816,19,1,20030212,112.19,181.73,0,0,0,0,0.0,N,N,N,37.502794,127.030463
0,아파트,A01,불루밍코트,101553,19,1,20030510,90.83,190.35,0,0,100000,100000,0.0,N,N,N,37.494235,127.03599
0,아파트,A01,비에네스타,128052,28,1,20191205,49.4,161.9,182600,275000,0,0,0.0,N,N,N,37.509231,127.042843
0,아파트,A01,빌라란떼(도시형),151379,22,1,20130522,18.23,53.95,0,0,0,0,0.0,N,N,N,37.502222,127.033808
0,아파트,A01,상지리츠빌,18779,28,2,20040616,180.55,180.55,0,0,0,0,0.0,N,N,N,37.496685,127.045933
0,아파트,A01,상지리츠빌역삼2차,25941,19,1,20061227,142.02,188.07,0,0,0,0,0.0,N,N,N,37.496752,127.04643
0,아파트,A01,선릉역우정에쉐르멤버스(주상복합),12739,34,1,20040825,28.83,47.43,29500,56900,34500,37900,0.0,N,N,N,37.503138,127.048373
0,아파트,A01,성영포유,26275,19,2,20040603,124.08,199.91,158000,158000,70000,130000,0.0,N,N,N,37.509332,127.042073
0,아파트,A01,세방하이빌,11429,67,2,20030102,66.29,120.67,115000,125000,59000,75000,0.0,N,N,N,37.497389,127.042791
0,아파트,A01,세연예지향,14357,19,1,20030828,110.61,124.98,0,0,65000,65000,0.0,N,N,N,37.498,127.041427
0,아파트,A01,세종빌라트,15203,19,1,19980126,139.39,184.82,130000,200000,0,0,0.0,N,N,N,37.494258,127.038851
0,아파트,A01,스타힐스(도시형),127848,27,1,20121106,20.13,34.77,0,0,0,0,0.0,N,N,N,37.494424,127.04169
0,아파트,A01,스톤엘리시온역삼,133567,19,1,20210128,26.14,69.99,57000,60000,0,0,0.0,N,N,N,37.495214,127.03929
0,아파트,A01,"시티프라디움더강남(101동,주상복합)",124947,72,1,20210331,84.8,85.12,143000,190000,73000,90000,0.0,N,N,N,37.507334,127.03916
0,아파트,A01,"시티프라디움더강남(201동,주상복합)",124948,34,1,20210331,97.04,97.04,160000,190000,79500,89000,0.0,N,N,N,37.507216,127.039457
0,아파트,A01,시티프라디움더강남2차(도시형),142047,48,1,202211,50.65,72.01,120000,140000,65000,70000,0.0,N,N,N,37.507406,127.038363
0,아파트,A01,쌍용플래티넘밸류(주상복합),18991,166,3,20070119,106.36,146.15,190000,245000,79000,105000,0.0,N,N,N,37.495603,127.030341
0,아파트,A01,쎄비앙,102632,29,2,20070124,90.44,158.89,0,0,0,0,0.0,N,N,N,37.49584,127.042811
0,아파트,A01,아미헌(도시형),123813,21,1,20130809,27.67,33.86,0,0,0,0,0.0,N,N,N,37.506289,127.041575
0,아파트,A01,아이리스(도시형),152743,36,2,20160422,35.92,41.05,0,0,0,0,0.0,N,N,N,37.505505,127.045641
0,아파트,A01,아이힐2(도시형),146906,16,1,20160518,35.89,36.59,0,0,0,0,0.0,N,N,N,37.506651,127.04268
0,아파트,A01,아하바하우스(도시형),156126,16,1,20160421,33.91,57.05,0,0,0,0,0.0,N,N,N,37.494557,127.043664
0,아파트,A01,에레프(도시형),106494,63,1,20130214,19.84,22.77,0,0,16800,16800,0.0,N,N,N,37.494759,127.03077
0,아파트,A01,에벤에셀빌라트,104215,19,1,20011227,40.05,164.39,0,0,0,0,0.0,N,N,N,37.507961,127.043007
0,아파트,A01,역삼(리츠빌),102665,15,1,20030826,61.97,107.62,115000,115000,0,0,0.0,N,N,N,37.493731,127.042804
0,아파트,A01,역삼2차아이파크,24081,150,3,20081202,74.98,149.58,172000,330000,0,0,0.0,N,N,N,37.496869,127.052049
0,아파트,A01,역삼EG소울리더(도시형),104666,99,1,20121130,19.9,42.95,17800,33000,0,0,0.0,N,N,N,37.497152,127.033589
0,아파트,A01,역삼IPARK,17805,541,7,20060928,36.27,181.03,69300,365000,41000,190000,0.0,N,N,N,37.499604,127.047061
0,아파트,A01,역삼e-편한세상,13813,840,12,20051216,79.52,108.2,187000,270000,86000,140000,0.0,N,N,N,37.498632,127.049324
0,아파트,A01,역삼골든베리힐,23222,14,1,20041213,68.29,140.46,180000,180000,100000,100000,0.0,N,N,N,37.504756,127.035617
0,아파트,A01,역삼그린비,104157,12,1,20041104,97.5,121.6,150000,150000,0,0,0.0,N,N,N,37.506811,127.039029
0,아파트,A01,역삼노블카운티,22647,16,1,20031231,90.66,123.95,115000,115000,0,0,0.0,N,N,N,37.492583,127.037866
0,아파트,A01,역삼더하이브(도시형),138690,14,1,201905,27.33,69.5,0,0,0,0,0.0,N,N,N,37.504398,127.039581
0,아파트,A01,역삼디오슈페리움(주상복합),24863,60,1,20060828,65.78,119.11,130000,130000,80000,80000,0.0,N,N,N,37.492175,127.030925
0,아파트,A01,역삼래미안,13814,1050,12,20051026,80.66,109.4,175000,250000,84000,135000,0.0,N,N,N,37.497838,127.050397
0,아파트,A01,역삼레전드힐스(도시형),162782,46,3,20131113,30.79,65.22,0,0,0,0,0.0,N,N,N,37.496293,127.051326
0,아파트,A01,역삼롯데캐슬노블,22320,117,2,20070226,183.02,283.08,250000,280000,140000,170000,0.0,N,N,N,37.492491,127.035424
0,아파트,A01,역삼르비앙,14197,12,1,20031111,109.11,167.34,155000,155000,0,0,0.0,N,N,N,37.49185,127.035286
0,아파트,A01,역삼미까사(도시형),110420,29,1,20130904,30.32,61.46,0,0,0,0,0.0,N,N,N,37.496965,127.035978
0,아파트,A01,역삼브라운스톤,14386,48,1,20040528,76.67,76.67,92000,92000,0,0,0.0,N,N,N,37.495601,127.037861
0,아파트,A01,역삼센트럴2차아이파크(도시형),136239,67,1,202206,29.77,46.15,52500,72000,38000,48000,0.0,N,N,N,37.499996,127.046438
0,아파트,A01,역삼엔스위트,26441,24,2,20050121,94.32,120.31,120000,120000,65000,65000,0.0,N,N,N,37.506763,127.03872
0,아파트,A01,역삼예명,18566,15,1,20011201,67.91,82.96,79000,79000,0,0,0.0,N,N,N,37.50499,127.03842
0,아파트,A01,역삼우성,23999,12,1,20050304,123.63,123.63,0,0,85000,85000,0.0,N,N,N,37.502061,127.031184
0,아파트,A01,역삼우성빌라트,15206,19,1,19960925,143.29,173.9,170000,170000,0,0,0.0,N,N,N,37.494449,127.039086
0,아파트,A01,역삼우정에쉐르1(주상복합),14295,69,1,20040604,55.3,99.49,75000,100000,49000,80000,0.0,N,N,N,37.496376,127.030104
0,아파트,A01,역삼우정에쉐르2(주상복합),17795,70,1,20040806,51.08,61.1,71000,85000,35856,70000,0.0,N,N,N,37.50265,127.04584
0,아파트,A01,역삼우정에쉐르3(주상복합),19457,45,1,20041203,47.18,78.43,59000,120000,0,0,0.0,N,N,N,37.502464,127.045249
0,아파트,A01,역삼월드메르디앙,17527,93,1,20051108,102.65,129.5,148000,220000,70000,85000,0.0,N,N,N,37.492966,127.038472
0,아파트,A01,역삼이안애,100667,30,2,20041103,97.8,125.67,0,0,68000,70000,0.0,N,N,N,37.495365,127.040985
0,아파트,A01,역삼자이,109227,408,3,20160622,88.11,151.98,218000,400000,130000,185000,0.0,N,N,N,37.500719,127.04443
0,아파트,A01,역삼카이스,9517,19,1,20020511,131.51,131.51,129500,129500,87000,87000,0.0,N,N,N,37.492012,127.034198
0,아파트,A01,역삼칼라,16459,19,1,20020911,68.73,141.83,0,0,48000,48000,0.0,N,N,N,37.504611,127.034386
0,아파트,A01,역삼트레벨,10294,45,1,20020418,33.48,36.74,60000,63000,0,0,0.0,N,N,N,37.496162,127.050418
0,아파트,A01,역삼파크빌(도시형),147489,19,1,20131217,18.82,42.7,0,0,0,0,0.0,N,N,N,37.497893,127.0353
0,아파트,A01,역삼푸르지오,14142,738,11,20060102,79.41,104.4,199000,250000,88000,125000,0.0,N,N,N,37.497966,127.047479
0,아파트,A01,역삼프라임,27333,19,2,20050525,137.4,209.71,0,0,0,0,0.0,N,N,N,37.505229,127.039525
0,아파트,A01,역삼프리마빌,24071,19,1,20030908,91.9,211.72,110000,150000,0,0,0.0,N,N,N,37.497344,127.039399
0,아파트,A01,역삼프리우스,24783,27,2,20060616,88.16,104.21,140000,150000,69000,69000,0.0,N,N,N,37.501241,127.031184
0,아파트,A01,역삼하나빌(주상복합),100318,77,1,20020916,38.21,113.88,41000,89000,45000,80000,0.0,N,N,N,37.509263,127.041339
0,아파트,A01,역삼한스빌,3054,216,1,19961126,45.98,86.0,41000,56000,29000,29000,0.0,N,N,N,37.492001,127.032841
0,아파트,A01,예지인,100375,14,1,20080718,52.43,121.45,0,0,0,0,0.0,N,N,N,37.496391,127.033045
0,아파트,A01,요진와이시티미니(도시형),105266,91,1,20120621,23.1,33.05,17000,21000,15000,17000,0.0,N,N,N,37.497559,127.039272
0,아파트,A01,우리집(도시형),115365,16,1,20161012,19.39,42.12,0,0,0,0,0.0,N,N,N,37.4954,127.034814
0,아파트,A01,우림루미아트(주상복합),12828,84,2,20030310,30.29,30.73,21000,25000,19000,22600,0.0,N,N,N,37.502193,127.043747
0,아파트,A01,이지마루역삼(주상복합),123478,28,1,20181116,31.96,34.71,49000,52000,0,0,0.0,N,N,N,37.502269,127.039118
0,아파트,A01,일성(도시형),146661,13,1,20110712,15.53,75.57,0,0,0,0,0.0,N,N,N,37.495191,127.034675
0,아파트,A01,정원,23089,19,1,20040108,108.17,202.12,135000,135000,0,0,0.0,N,N,N,37.496544,127.03394
0,아파트,A01,조이너스,25057,28,1,20061009,64.94,106.51,100000,120000,65000,65000,0.0,N,N,N,37.495939,127.037325
0,아파트,A01,좋은사람좋은집(도시형),112196,26,1,20150710,21.75,134.72,0,0,0,0,0.0,N,N,N,37.502264,127.043917
0,아파트,A01,지석천평대,22783,14,1,20030930,69.43,100.59,0,0,70000,70000,0.0,N,N,N,37.494169,127.035686
0,아파트,A01,진넥스빌2(주상복합),13174,56,1,20030408,33.29,42.62,22000,25000,0,0,0.0,N,N,N,37.501779,127.044005
0,아파트,A01,코너스톤(도시형),128172,28,1,20130701,31.55,39.82,0,0,0,0,0.0,N,N,N,37.500254,127.028769
0,아파트,A01,탑팰리스,24373,19,1,20041204,59.32,93.62,135000,135000,85000,85000,0.0,N,N,N,37.499575,127.041146
0,아파트,A01,테라힐스,101753,19,1,20100331,71.9,190.33,0,0,0,0,0.0,N,N,N,37.49679,127.052321
0,아파트,A01,테헤란아이파크,104032,411,6,20140124,82.91,147.12,225000,350000,102000,180000,0.0,N,N,N,37.502668,127.047118
0,아파트,A01,파크앤스위트,26849,19,1,20030801,88.11,97.4,0,0,0,0,0.0,N,N,N,37.495009,127.032667
0,아파트,A01,포스틸빌라트,103695,12,1,20040910,65.6,81.04,0,0,0,0,0.0,N,N,N,37.497335,127.035034
0,아파트,A01,풍림지오빌,102054,17,1,20021129,56.51,256.34,0,0,0,0,0.0,N,N,N,37.500917,127.029017
0,아파트,A01,풍성애뜨란(도시형),122837,20,1,20180620,31.64,34.81,53000,60000,0,0,0.0,N,N,N,37.496302,127.050619
0,아파트,A01,프리빌리지(도시형),119385,27,1,20171101,26.64,66.44,36000,70000,0,0,0.0,N,N,N,37.499907,127.041303
0,아파트,A01,플래티늄,12766,19,1,20030515,49.86,121.79,0,0,0,0,0.0,N,N,N,37.498557,127.042336
0,아파트,A01,하우스32(도시형),151580,19,1,20130103,29.67,38.55,0,0,0,0,0.0,N,N,N,37.498993,127.042508
0,아파트,A01,하우스템(도시형),120922,23,1,20100707,19.99,31.77,0,0,0,0,0.0,N,N,N,37.50681,127.042239
0,아파트,A01,한양럭스,23094,18,1,20030916,54.38,157.28,120000,120000,0,0,0.0,N,N,N,37.50427,127.034583
0,아파트,A01,한화진넥스빌(주상복합),3055,294,1,20010130,46.78,68.62,29000,60000,26000,30000,0.0,N,N,N,37.502106,127.04436
0,아파트,A01,현대까르띠에710,3316,137,3,20011109,199.67,295.17,330000,550000,160000,320000,0.0,N,N,N,37.50172,127.044591
0,아파트,A01,현대이스트빌,104244,12,1,19990602,275.49,275.84,0,0,0,0,0.0,N,N,N,37.49851,127.041024
0,아파트,A01,현대트라움,13891,14,1,20020612,201.0,203.69,0,0,0,0,0.0,N,N,N,37.496749,127.047176
0,아파트,A01,현대하이츠,102815,12,1,20040924,70.66,124.74,100000,100000,0,0,0.0,N,N,N,37.496358,127.042228
0,아파트,A01,휴먼스빌(도시형),142248,14,1,20130916,37.59,47.5,0,0,0,0,0.0,N,N,N,37.496568,127.03341
0,아파트,A01,휴먼터치빌(주상복합),10331,160,1,19990619,37.85,52.4,0,0,20000,20000,0.0,N,N,N,37.506607,127.033908
0,아파트,A01,강남한신휴플러스6단지,109107,378,12,20150923,85.94,120.72,108000,150000,60000,65000,0.0,N,N,N,37.467606,127.105468
0,아파트,A01,강남한신휴플러스8단지,109555,169,11,20150923,141.18,157.83,165000,200000,80000,90000,0.0,N,N,N,37.469715,127.110591
0,아파트,A01,가람,860,496,13,19930309,90.35,100.94,200000,200000,70000,85000,0.0,N,N,N,37.482534,127.085212
0,아파트,A01,개포현대4차,961,142,1,19870203,91.6,106.65,180000,210000,0,0,0.0,N,N,N,37.49078,127.07764
0,아파트,A01,골든빌(도시형),141317,10,1,20201029,35.89,40.61,0,0,0,0,0.0,N,N,N,37.49126,127.082873
0,아파트,A01,꿈지을(도시형),142156,10,1,20210518,16.45,35.11,0,0,0,0,0.0,N,N,N,37.494544,127.084506
0,아파트,A01,꿈피엠(도시형),142655,10,1,20210421,16.1,34.69,0,0,0,0,0.0,N,N,N,37.494521,127.084054
0,아파트,A01,디에이치자이개포,121971,1996,15,20210730,81.76,226.11,217000,450000,135000,290000,0.0,N,N,N,37.491183,127.075206
0,아파트,A01,디에이치포레센트,125693,184,4,20210122,80.62,149.89,210000,400000,130000,180000,0.0,N,N,N,37.489848,127.078351
0,아파트,A01,래미안개포루체하임,113125,850,12,20181121,86.17,215.53,190000,450000,95000,180000,0.0,N,N,N,37.489583,127.079812
0,아파트,A01,목련타운,979,650,8,19930925,121.11,158.71,213000,280000,95000,150000,0.0,N,N,N,37.485296,127.085902
0,아파트,A01,삼성사원,871,80,4,19861128,77.27,103.57,150000,220000,50000,50000,0.0,N,N,N,37.493335,127.083769
0,아파트,A01,상록수,868,740,22,19930327,90.12,101.4,183000,250000,65000,80000,0.0,N,N,N,37.481934,127.082212
0,아파트,A01,샘터마을,874,628,9,19940214,119.77,179.36,210000,330000,90000,130000,0.0,N,N,N,37.485019,127.082717
0,아파트,A01,수서1-2단지,827,720,7,19921126,58.75,88.11,83000,150000,36000,57000,0.0,N,N,N,37.493062,127.089575
0,아파트,A01,청솔빌리지,8321,291,13,19931213,79.81,79.81,135000,145000,0,0,0.0,N,N,N,37.480723,127.082871
0,아파트,A01,푸른마을,983,930,11,19940127,82.14,103.49,137000,180000,55000,70000,0.0,N,N,N,37.484711,127.08133
0,아파트,A01,한솔마을,991,570,19,19940603,84.72,110.26,162000,230000,63000,80000,0.0,N,N,N,37.482357,127.077514
0,아파트,A01,호정빌라트,3058,19,1,19950508,150.39,166.86,0,0,0,0,0.0,N,N,N,37.490671,127.082976
0,아파트,A01,LH강남8단지(도시형),140578,96,12,20131113,81.41,81.62,104000,125000,50000,60000,0.0,N,N,N,37.47253,127.100817
0,아파트,A01,강남브리즈힐,106166,402,13,20141030,102.4,117.53,93000,130000,63000,70000,0.0,N,N,N,37.4729,127.090813
0,아파트,A01,강남자곡아이파크,113680,716,10,20141002,81.53,115.52,118000,190000,60000,88000,0.0,N,N,N,37.474668,127.101656
0,아파트,A01,강남자곡힐스테이트,105735,1339,5,20150602,73.91,120.05,90000,160000,47000,75000,0.0,N,N,N,37.471168,127.088432
0,아파트,A01,강남한양수자인,107458,1304,26,20140314,81.64,154.34,124000,200000,65000,90000,0.0,N,N,N,37.476662,127.112807
0,아파트,A01,디아크리온강남,129646,597,8,20230613,72.78,86.77,0,0,0,0,0.0,N,N,N,37.476965,127.107143
0,아파트,A01,래미안강남힐즈,104967,1020,20,20140627,118.8,132.06,175000,230000,85000,120000,0.0,N,N,N,37.473934,127.094136
0,아파트,A01,래미안포레,107457,1070,15,20140313,85.07,141.4,140000,210000,65000,78000,0.0,N,N,N,37.475497,127.109756
0,아파트,A01,J&M하우스(도시형),151006,12,1,20120725,20.06,56.16,0,0,0,0,0.0,N,N,N,37.51941,127.044033
0,아파트,A01,LG,16502,11,1,19980504,263.42,263.42,0,0,0,0,0.0,N,N,N,37.528287,127.048213
0,아파트,A01,PH129,135644,29,1,20200812,332.88,495.42,1040000,1800000,1000000,1200000,0.0,N,N,N,37.526054,127.054312
0,아파트,A01,T.S.,123601,8,1,19980703,176.7,222.06,340000,340000,145000,150000,0.0,N,N,N,37.527971,127.047144
0,아파트,A01,강변상지리츠빌,104069,12,1,20010630,166.36,196.23,0,0,0,0,0.0,N,N,N,37.528007,127.050603
0,아파트,A01,건영,1000,240,2,19940905,104.51,105.06,230000,420000,55000,57000,0.0,N,N,N,37.527524,127.052159
0,아파트,A01,골든아트빌(주상복합),101483,19,1,20000601,173.52,201.9,230000,230000,0,0,0.0,N,N,N,37.519941,127.047006
0,아파트,A01,구산,3063,37,1,19931126,75.06,144.54,170000,300000,0,0,0.0,N,N,N,37.52668,127.05395
0,아파트,A01,뉴현대리버빌,13418,15,1,19961220,144.04,201.03,270000,270000,130000,130000,0.0,N,N,N,37.524255,127.055764
0,아파트,A01,대우로얄카운티II,102972,13,1,20020401,235.03,263.21,590000,650000,0,0,0.0,N,N,N,37.526145,127.047572
0,아파트,A01,대우로얄카운티III,16519,19,1,20030122,261.83,300.19,530000,530000,0,0,0.0,N,N,N,37.525824,127.048085
0,아파트,A01,대우로얄카운티V,15224,12,1,20030718,244.85,276.67,1000000,1000000,0,0,0.0,N,N,N,37.522605,127.052289
0,아파트,A01,대우리츠카운티,102542,19,1,20011008,179.45,280.25,0,0,300000,300000,0.0,N,N,N,37.526638,127.048482
0,아파트,A01,대우멤버스카운티Ⅱ,15225,17,1,20030603,152.57,173.95,0,0,0,0,0.0,N,N,N,37.522608,127.051463
0,아파트,A01,더리버스청담(주상복합),116894,12,1,20190118,49.5,49.5,100000,105000,0,0,0.0,N,N,N,37.524381,127.05538
0,아파트,A01,"더헤리움(A동,도시형)",119798,10,1,20170414,48.68,68.97,99000,110000,61000,65000,0.0,N,N,N,37.523665,127.05268
0,아파트,A01,더헤리움(B동),119193,8,1,20170621,40.64,57.87,89000,90000,40000,50000,0.0,N,N,N,37.523647,127.052529
0,아파트,A01,동궁빌리지,110393,16,1,19931126,139.29,147.77,0,0,0,0,0.0,N,N,N,37.524325,127.043138
0,아파트,A01,두산,123288,12,1,19960611,235.35,245.52,0,0,0,0,0.0,N,N,N,37.526672,127.047403
0,아파트,A01,디아트(주상복합),24872,16,1,20140710,150.68,150.68,0,0,0,0,0.0,N,N,N,37.52519,127.049858
0,아파트,A01,라테라스청담(도시형),117425,88,1,20181012,26.86,60.22,34000,84000,29500,55000,0.0,N,N,N,37.519721,127.050522
0,아파트,A01,"마크힐스1,2단지",102257,38,2,20100702,260.18,388.14,1000000,1300000,438000,440000,0.0,N,N,N,37.524647,127.055171
0,아파트,A01,목화,3066,19,1,19950125,149.56,260.04,0,0,120000,120000,0.0,N,N,N,37.528144,127.049903
0,아파트,A01,빌폴라리스,101724,19,1,20091026,203.81,203.81,0,0,0,0,0.0,N,N,N,37.525509,127.053746
0,아파트,A01,삼성청담공원,980,391,8,19990830,81.95,132.18,153000,250000,65000,120000,0.0,N,N,N,37.522268,127.050266
0,아파트,A01,삼호,16490,45,3,19970602,192.43,256.11,370000,390000,180000,300000,0.0,N,N,N,37.527263,127.048791
0,아파트,A01,삼환,981,184,1,19991130,40.47,148.99,140000,240000,40000,150000,0.0,N,N,N,37.5215,127.04767
0,아파트,A01,상지리츠빌10차,103260,17,1,20070921,174.04,203.87,410000,410000,0,0,0.0,N,N,N,37.526051,127.049394
0,아파트,A01,상지리츠빌4차,102284,38,2,20000929,196.18,281.45,350000,480000,230000,240000,0.0,N,N,N,37.527862,127.048263
0,아파트,A01,상지리츠빌5차,102166,52,3,20010221,150.0,263.51,300000,340000,190000,190000,0.0,N,N,N,37.526393,127.052183
0,아파트,A01,상지리츠빌6차,100237,19,1,20020202,168.21,256.07,300000,320000,165000,220000,0.0,N,N,N,37.527753,127.050368
0,아파트,A01,상지리츠빌9차,103862,12,1,20040401,196.02,219.25,450000,450000,270000,270000,0.0,N,N,N,37.526913,127.04789
0,아파트,A01,상지리츠빌카일룸2차,26896,15,1,20060825,281.6,281.6,1000000,1500000,700000,750000,0.0,N,N,N,37.52646,127.054288
0,아파트,A01,상지리츠빌카일룸3차,103373,19,1,20090714,248.0,345.79,920000,920000,650000,650000,0.0,N,N,N,37.525542,127.053304
0,아파트,A01,상지카일룸,102049,17,1,20031215,272.71,305.46,0,0,460000,460000,0.0,N,N,N,37.526856,127.054215
0,아파트,A01,신동아,8478,106,1,19970220,103.81,103.81,230000,270000,65000,75000,0.0,N,N,N,37.52299,127.058767
0,아파트,A01,씨티2차,3060,37,2,19920720,97.87,242.41,300000,300000,65000,120000,0.0,N,N,N,37.528425,127.048844
0,아파트,A01,씨티3차,3061,19,1,19960127,166.54,263.9,0,0,0,0,0.0,N,N,N,37.528224,127.049582
0,아파트,A01,아노스카운티빌라트,141238,5,1,20030716,183.2,252.08,0,0,0,0,0.0,N,N,N,37.524849,127.042808
0,아파트,A01,에비뉴나인티(도시형),135102,28,1,20200918,65.85,68.31,150000,220000,80000,105000,0.0,N,N,N,37.525186,127.042563
0,아파트,A01,연세2차,108206,13,1,19971213,147.69,147.69,0,0,0,0,0.0,N,N,N,37.52867,127.047845
0,아파트,A01,연세리버빌,15220,19,1,19970203,266.58,275.19,600000,600000,349000,350000,0.0,N,N,N,37.528757,127.047471
0,아파트,A01,연세리버빌3차,103309,19,1,19990111,226.86,263.82,0,0,350000,358000,0.0,N,N,N,37.528429,127.048176
0,아파트,A01,연세리버테라스,103051,19,1,20030304,269.49,271.12,950000,950000,350000,350000,0.0,N,N,N,37.528858,127.046587
0,아파트,A01,연세힐하우스I,103141,18,1,20031202,120.7,211.2,0,0,230000,250000,0.0,N,N,N,37.52837,127.0476
0,아파트,A01,연세힐하우스II,103812,6,1,20040218,186.79,268.47,0,0,0,0,0.0,N,N,N,37.528372,127.047792
0,아파트,A01,우성,101606,25,1,20050131,74.11,131.09,136000,143000,79000,79000,0.0,N,N,N,37.521804,127.046824
0,아파트,A01,이니그마빌II,106272,16,1,20021127,278.58,330.8,0,0,0,0,0.0,N,N,N,37.525197,127.042911
0,아파트,A01,이니그마빌Ⅰ,108042,14,1,20010329,271.08,271.22,0,0,0,0,0.0,N,N,N,37.525563,127.04362
0,아파트,A01,진흥,733,375,4,19840718,107.19,180.67,230000,370000,70000,170000,0.0,N,N,N,37.520112,127.051472
0,아파트,A01,청담CJ빌리지,110268,11,1,20040416,171.37,172.62,0,0,0,0,0.0,N,N,N,37.526802,127.049815
0,아파트,A01,청담e-편한세상1차,3305,271,4,20021230,87.2,165.32,192000,280000,100000,190000,0.0,N,N,N,37.520659,127.047856
0,아파트,A01,청담e-편한세상2차,17529,142,3,20060427,103.39,193.59,207000,265000,90000,140000,0.0,N,N,N,37.521414,127.045392
0,아파트,A01,청담e-편한세상2차(204동),22626,41,1,20051222,96.9,174.43,0,0,110000,140000,0.0,N,N,N,37.5207,127.04505
0,아파트,A01,청담e-편한세상2차(205동),25763,41,1,20061201,96.52,144.98,220000,240000,120000,130000,0.0,N,N,N,37.520844,127.046169
0,아파트,A01,청담e-편한세상3차,25762,49,1,20071129,89.48,180.14,190000,200000,0,0,0.0,N,N,N,37.518596,127.045575
0,아파트,A01,청담e-편한세상4차,26994,94,2,20110210,106.23,160.85,200000,225000,100000,165000,0.0,N,N,N,37.520634,127.046907
0,아파트,A01,청담갤러리파크,115805,6,1,20170310,197.44,266.27,535000,535000,350000,350000,0.0,N,N,N,37.523337,127.053551
0,아파트,A01,청담그랑빌(주상복합),27275,19,1,20041105,87.18,125.21,0,0,55000,55000,0.0,N,N,N,37.519083,127.049053
0,아파트,A01,청담대우로얄카운티6차,23672,12,1,20050916,179.25,206.49,450000,450000,0,0,0.0,N,N,N,37.527863,127.046147
0,아파트,A01,청담대우로얄카운티Ⅰ,105966,17,1,19991013,236.98,265.13,570000,600000,380000,390000,0.0,N,N,N,37.526446,127.048145
0,아파트,A01,청담대우멤버스카운티10차,23651,15,1,20040514,151.64,185.42,0,0,0,0,0.0,N,N,N,37.526691,127.050574
0,아파트,A01,청담대우멤버스카운티11차,23681,18,1,20040424,156.01,183.28,350000,350000,0,0,0.0,N,N,N,37.526155,127.049948
0,아파트,A01,청담대우멤버스카운티8차,23676,10,1,20040703,124.81,153.3,270000,275000,155000,155000,0.0,N,N,N,37.527371,127.051018
0,아파트,A01,청담대우멤버스카운티9차,23680,10,1,20040421,97.09,136.45,0,0,0,0,0.0,N,N,N,37.526876,127.051149
0,아파트,A01,청담대우멤버스카운티V,16522,19,1,20030708,170.31,185.53,0,0,210000,240000,0.0,N,N,N,37.527313,127.050532
0,아파트,A01,청담대우멤버스카운티VI,23673,19,2,20040423,162.15,213.86,0,0,140000,300000,0.0,N,N,N,37.527081,127.050807
0,아파트,A01,청담대우멤버스카운티Vll,23675,19,2,20040416,158.89,187.69,0,0,0,0,0.0,N,N,N,37.527084,127.051271
0,아파트,A01,청담대우멤버스카운티XII,23682,16,1,20041210,148.44,213.71,280000,280000,135000,135000,0.0,N,N,N,37.52656,127.050995
0,아파트,A01,청담대우멤버스카운티Ⅲ,15226,19,1,20030613,165.88,181.8,0,0,0,0,0.0,N,N,N,37.526761,127.050301
0,아파트,A01,청담대우유로카운티,10321,196,4,20040422,99.92,213.46,230000,360000,90000,195000,0.0,N,N,N,37.523597,127.050059
0,아파트,A01,청담동양파라곤,17713,92,2,20060331,204.84,290.11,579000,850000,349000,500000,0.0,N,N,N,37.521769,127.054732
0,아파트,A01,청담디에브스,119278,18,1,20170809,60.24,152.35,117000,117000,70000,85000,0.0,N,N,N,37.522862,127.049146
0,아파트,A01,청담래미안로이뷰,1005,177,1,20140124,136.11,136.11,270000,390000,130000,190000,0.0,N,N,N,37.524843,127.055994
0,아파트,A01,청담린든그로브,112472,114,5,20170829,114.36,277.45,310000,320000,150000,320000,0.0,N,N,N,37.522752,127.053648
0,아파트,A01,청담마크노빌,113714,12,1,20080624,292.02,357.49,0,0,0,0,0.0,N,N,N,37.525506,127.042183
0,아파트,A01,청담범신칼릭스빌,27112,18,1,20060501,104.55,104.55,180000,180000,82000,100000,0.0,N,N,N,37.525252,127.050787
0,아파트,A01,청담범신칼릭스빌2차,101191,18,1,20070504,121.47,121.47,290000,330000,140000,140000,0.0,N,N,N,37.526683,127.051751
0,아파트,A01,청담범신칼릭스빌3차,104370,12,1,20111212,55.78,55.82,0,0,0,0,0.0,N,N,N,37.522229,127.049228
0,아파트,A01,청담브르넨,128347,8,1,20191011,204.36,257.62,900000,1500000,600000,750000,0.0,N,N,N,37.527281,127.047788
0,아파트,A01,청담삼성,16549,16,2,19980204,145.21,197.39,200000,200000,0,0,0.0,N,N,N,37.522972,127.051419
0,아파트,A01,청담삼성1차,3064,158,1,19971219,79.1,112.37,155000,185000,55000,85000,0.0,N,N,N,37.519514,127.047747
0,아파트,A01,청담삼성3차,3065,217,2,19991029,86.34,163.55,167000,250000,107000,130000,0.0,N,N,N,37.518121,127.042595
0,아파트,A01,청담상지리츠빌3차,102840,24,3,19990630,202.62,278.52,330000,380000,170000,170000,0.0,N,N,N,37.526276,127.048814
0,아파트,A01,청담상지리츠빌8차,100585,18,2,20031128,207.8,294.23,400000,430000,270000,270000,0.0,N,N,N,37.525729,127.048607
0,아파트,A01,청담스위트(도시형),109803,124,1,20150330,19.28,22.62,22000,24000,20000,24000,0.0,N,N,N,37.519286,127.047421
0,아파트,A01,청담스테이,120981,16,1,20180206,30.26,33.83,62500,105000,42000,75000,0.0,N,N,N,37.519189,127.042292
0,아파트,A01,청담신동아빌라트,114030,18,1,19950728,183.75,239.63,0,0,210000,210000,0.0,N,N,N,37.52733,127.044864
0,아파트,A01,청담신원아침도시마인(도시형),103420,89,1,20130917,34.92,71.31,33000,78000,28000,34000,0.0,N,N,N,37.526467,127.049604
0,아파트,A01,청담아르지움(도시형),108948,29,1,20150224,24.74,67.93,44000,50000,43000,80000,0.0,N,N,N,37.519788,127.048196
0,아파트,A01,청담아이파크,1077,108,1,20140221,137.01,137.11,270000,350000,135000,200000,0.0,N,N,N,37.525261,127.055378
0,아파트,A01,청담어퍼하우스,128296,18,1,20191107,225.49,313.26,740000,800000,0,0,0.0,N,N,N,37.521029,127.050507
0,아파트,A01,청담연세파크빌,108358,18,1,19990916,264.25,266.66,0,0,0,0,0.0,N,N,N,37.522337,127.051467
0,아파트,A01,청담영풍마드레빌,11744,49,1,20031029,103.39,147.24,215000,215000,130000,130000,0.0,N,N,N,37.519156,127.044663
0,아파트,A01,청담우방,1061,100,1,19991029,83.51,149.27,150000,220000,69000,120000,0.0,N,N,N,37.518025,127.044078
0,아파트,A01,청담자이,1081,708,5,20120323,70.8,120.58,173000,410000,77900,220000,0.0,N,N,N,37.524236,127.056715
0,아파트,A01,청담클래스(도시형),150563,16,1,20190314,35.61,35.75,0,0,45000,50000,0.0,N,N,N,37.521095,127.044223
0,아파트,A01,청담파라곤Ⅱ 1단지,102219,18,1,20100426,174.06,291.05,0,0,320000,320000,0.0,N,N,N,37.528686,127.046533
0,아파트,A01,청담파라곤Ⅱ 2단지,102220,17,2,20100426,164.82,254.27,950000,950000,0,0,0.0,N,N,N,37.528618,127.047076
0,아파트,A01,청담파크빌,106342,10,1,20040116,71.28,93.49,98000,98000,0,0,0.0,N,N,N,37.519036,127.048726
0,아파트,A01,청담포레,110569,11,1,20000915,185.55,267.54,350000,400000,250000,250000,0.0,N,N,N,37.522577,127.052097
0,아파트,A01,청담현대3차,982,317,4,19990619,91.43,142.19,185000,400000,70000,140000,0.0,N,N,N,37.527354,127.053394
0,아파트,A01,청담현대빌라트,110582,16,1,19981130,179.8,196.53,340000,340000,200000,200000,0.0,N,N,N,37.526661,127.049093
0,아파트,A01,청담휴먼스타빌,24654,191,1,20051021,48.42,258.36,87000,103000,40000,50000,0.0,N,N,N,37.523772,127.046086
0,아파트,A01,청담힐,16509,30,2,19970429,171.61,227.31,340000,350000,0,0,0.0,N,N,N,37.527494,127.048482
0,아파트,A01,퍼즐하우스,104787,15,1,20060821,70.35,343.66,0,0,0,0,0.0,N,N,N,37.52531,127.043589
0,아파트,A01,하우스에딘브로우,105619,16,2,20041025,183.11,183.11,220000,220000,0,0,0.0,N,N,N,37.520385,127.044048
0,아파트,A01,한신오페라하우스,10028,63,2,20031114,101.53,160.24,270000,270000,90000,140000,0.0,N,N,N,37.519236,127.045691
0,아파트,A01,한신오페라하우스2차,22891,42,1,20051118,108.53,177.62,195000,220000,110000,150000,0.0,N,N,N,37.518993,127.045638
0,아파트,A01,헤스티아,128341,4,1,20121126,135.91,184.03,0,0,260000,290000,0.0,N,N,N,37.523364,127.052335
0,아파트,A01,현대(43-1),16534,19,1,19920611,166.51,174.24,0,0,100000,100000,0.0,N,N,N,37.518399,127.044605
0,아파트,A01,현대1차,1092,96,2,19831228,103.32,172.47,380000,380000,70000,130000,0.0,N,N,N,37.519536,127.051013
0,아파트,A01,현대2차,1096,214,2,19880530,97.75,97.9,169000,195000,65000,72000,0.0,N,N,N,37.521593,127.040774
0,아파트,A01,현대한강,16528,18,1,19920623,154.86,204.25,350000,400000,0,0,0.0,N,N,N,37.52813,127.050251
0,아파트,A01,호원,22501,12,1,19991207,276.4,276.66,500000,500000,0,0,0.0,N,N,N,37.526781,127.047156
0,아파트,A01,효성청담101,125260,35,2,20190329,256.96,315.31,0,0,700000,850000,0.0,N,N,N,37.528211,127.046468
0,아파트,A01,효성청담101 2차,142147,28,1,20220331,242.28,311.03,1300000,1300000,750000,900000,0.0,N,N,N,37.527544,127.047078
0,아파트,A01,흥화(청담매스터빌),104784,19,1,19940906,204.09,274.11,0,0,180000,240000,0.0,N,N,N,37.527523,127.044273
0,아파트,A01,강동리버스트4단지,127671,1239,10,20200828,73.46,87.85,68000,85000,45000,50000,0.0,N,N,N,37.572611,127.1731
0,아파트,A01,강동리버스트8단지,134510,946,12,20210210,71.89,86.91,83000,90000,0,0,0.0,N,N,N,37.571829,127.176297
0,아파트,A01,강일리버파크10단지,27482,694,12,20090406,109.49,142.14,90000,150000,47000,55000,0.0,N,N,N,37.560728,127.181055
0,아파트,A01,강일리버파크1단지,27367,282,7,20090311,82.58,111.57,78800,110000,0,0,0.0,N,N,N,37.567712,127.172183
0,아파트,A01,강일리버파크2단지,27475,442,9,20090311,110.04,111.05,87000,98000,50000,50000,0.0,N,N,N,37.569339,127.176727
0,아파트,A01,강일리버파크3단지,27474,987,13,20090311,82.04,110.62,81000,97000,39690,50000,0.0,N,N,N,37.567057,127.175156
0,아파트,A01,강일리버파크4단지,27476,748,10,20090311,109.92,110.8,95000,125000,48000,55000,0.0,N,N,N,37.567108,127.176005
0,아파트,A01,강일리버파크5단지,27477,722,9,20090713,82.07,110.87,80000,120000,40000,50000,0.0,N,N,N,37.567872,127.17826
0,아파트,A01,강일리버파크6단지,27478,553,10,20090311,109.89,110.77,90000,110000,50000,51000,0.0,N,N,N,37.564203,127.176705
0,아파트,A01,강일리버파크7단지,27479,731,11,20090609,82.14,110.82,82000,115000,44000,60000,0.0,N,N,N,37.56493,127.17896
0,아파트,A01,강일리버파크8단지,27480,410,9,20090311,110.82,111.7,88000,105000,50000,50000,0.0,N,N,N,37.562019,127.177611
0,아파트,A01,강일리버파크9단지,27481,841,13,20090406,110.83,111.11,93000,105000,0,0,0.0,N,N,N,37.560613,127.178804
0,아파트,A01,고덕리엔파크1단지,102233,605,9,20110114,80.15,152.6,90000,145000,52000,70000,0.0,N,N,N,37.561499,127.171539
0,아파트,A01,고덕리엔파크2단지,102234,636,11,20110114,78.75,149.89,89000,150000,50000,70000,0.0,N,N,N,37.55978,127.173109
0,아파트,A01,힐스테이트리슈빌강일,138204,809,7,20231030,109.23,132.3,110000,150000,48000,80000,0.0,N,N,N,37.573912,127.175289
0,아파트,A01,고덕그라시움,113907,4932,53,20190927,82.36,243.62,118000,280000,58000,170000,0.0,N,N,N,37.557472,127.162199
0,아파트,A01,고덕래미안힐스테이트,108187,3658,51,20161229,82.55,263.29,115000,320000,60000,120000,0.0,N,N,N,37.559113,127.148905
0,아파트,A01,고덕센트럴푸르지오(주상복합),117842,656,4,20200820,61.71,119.2,75000,125000,45000,70000,0.0,N,N,N,37.557728,127.17018
0,아파트,A01,고덕아이파크,25874,1142,14,20111228,85.07,215.88,112000,255000,60000,110000,0.0,N,N,N,37.558909,127.155676
0,아파트,A01,고덕힐하우스(도시형),153409,14,1,20220502,34.67,65.33,0,0,0,0,0.0,N,N,N,37.560965,127.163117
0,아파트,A01,대우,1123,99,2,19860514,101.64,117.58,85000,120000,0,0,0.0,N,N,N,37.559095,127.145227
0,아파트,A01,배재현대,875,448,4,19951130,95.87,119.01,86000,130000,45000,70000,0.0,N,N,N,37.556623,127.152205
0,아파트,A01,아남,1156,807,8,19960329,60.95,103.1,70000,125000,33000,60000,0.0,N,N,N,37.557962,127.146791
0,아파트,A01,엘아트빌(도시형),151037,10,1,20211022,40.08,58.33,0,0,0,0,0.0,N,N,N,37.560593,127.155269
0,아파트,A01,GS강동자이,8755,596,12,20031112,104.46,172.42,115000,170000,58000,78000,0.0,N,N,N,37.537495,127.14862
0,아파트,A01,K&G타워(도시형),149619,28,1,20130308,23.87,92.59,0,0,0,0,0.0,N,N,N,37.537664,127.141541
0,아파트,A01,M.프라자,19726,28,2,20041006,33.69,94.86,65000,65000,0,0,0.0,N,N,N,37.535474,127.143291
0,아파트,A01,SM드림빌,10979,39,1,20021122,71.36,102.96,66000,71000,0,0,0.0,N,N,N,37.53858,127.13971
0,아파트,A01,SM베스트빌,8489,19,1,20010919,150.87,152.55,0,0,0,0,0.0,N,N,N,37.539069,127.138384
0,아파트,A01,"SM엘루이(민간임대,도시형)",158498,16,1,20230614,31.7,44.25,0,0,27000,38000,0.0,N,N,N,37.536518,127.138242
0,아파트,A01,SM해그린12차,100575,47,1,20060803,41.25,102.91,67000,67000,0,0,0.0,N,N,N,37.540036,127.146214
0,아파트,A01,e편한세상강동에코포레,119933,366,6,20200414,74.85,110.52,95000,125000,47000,80000,0.0,N,N,N,37.54134,127.148249
0,아파트,A01,"강남팰리스(326-1,도시형)",145657,10,1,20200116,47.86,55.26,0,0,0,0,0.0,N,N,N,37.544014,127.146214
0,아파트,A01,강동QV1차(도시형),103479,91,1,20130228,24.58,24.58,12000,12000,0,0,0.0,N,N,N,37.535455,127.137022
0,아파트,A01,강동디앤써밋(도시형),119039,40,2,201905,24.15,24.65,29000,33000,0,0,0.0,N,N,N,37.544713,127.142951
0,아파트,A01,강동렘브란트(도시형),107448,89,1,20140205,26.23,26.23,11500,13800,0,0,0.0,N,N,N,37.535042,127.137265
0,아파트,A01,강동시가오똠,19345,36,2,20040528,59.37,97.03,67000,70000,0,0,0.0,N,N,N,37.543202,127.142897
0,아파트,A01,강동역SK허브(주상복합),19246,94,1,20061229,76.26,127.26,80000,96000,57000,58000,0.0,N,N,N,37.53553,127.134939
0,아파트,A01,강동와이시티(도시형),105877,216,1,20140128,23.33,23.36,10000,10000,0,0,0.0,N,N,N,37.536585,127.137451
0,아파트,A01,강동큐브2차(도시형),105870,236,1,20130430,19.98,24.13,10500,13000,0,0,0.0,N,N,N,37.536692,127.136159
0,아파트,A01,강동파크래디앙(주상복합),154880,19,1,20221208,53.68,106.12,61500,128260,0,0,0.0,N,N,N,37.542197,127.147695
0,아파트,A01,"강동팰리스(228-5,도시형)",113312,20,2,20160722,28.24,65.39,0,0,18000,18000,0.0,N,N,N,37.534875,127.142777
0,아파트,A01,강동한신휴플러스(주상복합),22116,124,1,20061121,98.13,110.85,70000,90000,48000,55000,0.0,N,N,N,37.536053,127.137434
0,아파트,A01,거산유팰리스2차(도시형),154241,108,1,20221130,34.74,58.13,52885,58948,0,0,0.0,N,N,N,37.536437,127.137777
0,아파트,A01,경지아리움(주상복합),126639,124,1,20190619,21.62,41.43,21500,32000,0,0,0.0,N,N,N,37.53644,127.13811
0,아파트,A01,골드빌4차(주상복합),105855,19,1,20040421,94.94,94.94,70000,70000,0,0,0.0,N,N,N,37.538498,127.136079
0,아파트,A01,골드클래스(주상복합),144650,29,1,202202,74.55,75.62,65000,65000,0,0,0.0,N,N,N,37.537262,127.138144
0,아파트,A01,골든빌,18611,19,1,20040504,103.46,214.78,0,0,45000,45000,0.0,N,N,N,37.543013,127.147946
0,아파트,A01,광남(355-2),102000,18,1,20040117,89.64,99.44,0,0,0,0,0.0,N,N,N,37.540004,127.144514
0,아파트,A01,광남(380-18),14092,32,2,20031016,80.31,99.47,0,0,47000,48000,0.0,N,N,N,37.538665,127.138581
0,아파트,A01,광남벨라스(주상복합),17702,42,1,20040413,82.96,106.64,65000,65000,0,0,0.0,N,N,N,37.538093,127.13672
0,아파트,A01,광남캐스빌(247),22115,59,1,20061108,102.48,109.86,0,0,0,0,0.0,N,N,N,37.53491,127.14005
0,아파트,A01,"광남캐스빌(389-9,주상복합)",13462,28,1,20050517,71.43,109.58,80000,80000,60000,65000,0.0,N,N,N,37.537725,127.139361
0,아파트,A01,광남캐스빌(396-1),11011,28,1,20021231,59.12,99.19,0,0,0,0,0.0,N,N,N,37.536744,127.142043
0,아파트,A01,광남캐스빌610V,15910,17,1,20030609,53.77,95.52,0,0,0,0,0.0,N,N,N,37.536481,127.141176
0,아파트,A01,기풍트윈빌(도시형),118623,29,2,20151209,32.38,68.52,0,0,0,0,0.0,N,N,N,37.539243,127.137472
0,아파트,A01,길동다성이즈빌,162786,41,1,20231101,33.42,47.71,35500,35500,0,0,0.0,N,N,N,37.538858,127.141449
0,아파트,A01,길동다성이즈빌(도시형),114327,15,1,20130831,22.41,37.11,0,0,0,0,0.0,N,N,N,37.543116,127.147095
0,아파트,A01,길동대상,986,80,1,19990326,79.76,153.04,69000,86000,0,0,0.0,N,N,N,37.541143,127.144776
0,아파트,A01,길동신동아4차,3069,95,1,19991126,41.01,117.71,48000,74000,31500,55000,0.0,N,N,N,37.541496,127.147454
0,아파트,A01,길동쎈스빌(주상복합),18402,19,1,20040329,99.17,99.43,0,0,0,0,0.0,N,N,N,37.540584,127.145948
0,아파트,A01,길동예전이룸1차,17726,62,1,20041208,65.24,92.95,0,0,0,0,0.0,N,N,N,37.535122,127.140839
0,아파트,A01,길동예전이룸2차,17555,64,1,20041208,63.01,129.28,74000,74000,0,0,0.0,N,N,N,37.542697,127.142812
0,아파트,A01,길동우성,1290,811,6,19941029,54.87,108.45,56000,115000,35000,53000,0.0,N,N,N,37.537054,127.143714
0,아파트,A01,길동이룸3차,24173,38,1,20050603,60.26,107.46,62000,62000,0,0,0.0,N,N,N,37.536362,127.145084
0,아파트,A01,길동청광플러스원큐브1차(도시형),105873,112,1,20121121,25.05,25.63,10000,11600,0,0,0.0,N,N,N,37.537961,127.13834
0,아파트,A01,길동하나플러스,12932,68,1,20040903,102.02,103.2,77000,77000,0,0,0.0,N,N,N,37.536191,127.144063
0,아파트,A01,노블레스,18397,19,1,20040316,97.1,171.95,60000,70000,44000,45000,0.0,N,N,N,37.539012,127.136744
0,아파트,A01,다성이즈빌(324-6),103296,13,1,20050801,97.66,97.66,63000,63000,0,0,0.0,N,N,N,37.543606,127.145189
0,아파트,A01,다성이즈빌(348-4),104140,28,1,20080122,58.22,128.04,100000,100000,39000,39000,0.0,N,N,N,37.540471,127.141593
0,아파트,A01,다성이즈빌(357-7),102878,18,1,20060829,113.45,171.12,0,0,0,0,0.0,N,N,N,37.54005,127.141869
0,아파트,A01,다성이즈빌(371-9),21949,47,1,20031202,84.27,103.45,55000,70000,0,0,0.0,N,N,N,37.540556,127.138457
0,아파트,A01,"다성이즈빌(387-2,주상복합)",126215,28,1,20190619,18.01,28.7,0,0,0,0,0.0,N,N,N,37.538117,127.13797
0,아파트,A01,"다성이즈빌(387-4,주상복합)",124070,50,1,20181226,18.78,42.09,17000,31000,26500,33750,0.0,N,N,N,37.538158,127.138467
0,아파트,A01,"다성이즈빌(388-4,주상복합)",21812,53,1,20041025,84.2,103.28,67000,80000,0,0,0.0,N,N,N,37.537794,127.138964
0,아파트,A01,"다성이즈빌(388-7,주상복합)",111400,55,1,20150717,24.18,53.9,13000,34500,0,0,0.0,N,N,N,37.537946,127.138747
0,아파트,A01,"다성이즈빌(416-17,도시형)",145941,96,1,20211105,17.92,42.19,25000,56800,18500,38000,0.0,N,N,N,37.537042,127.135809
0,아파트,A01,"다성이즈빌(456-4,주상복합)",123434,105,1,20181127,20.88,30.62,18900,18900,0,0,0.0,N,N,N,37.535313,127.137043
0,아파트,A01,다성이즈빌(도시형),104776,96,1,20120430,26.07,28.05,0,0,0,0,0.0,N,N,N,37.540613,127.142508
0,아파트,A01,다성이즈빌101,162937,40,1,20231128,60.16,72.57,70000,80500,0,0,0.0,N,N,N,37.539944,127.138323
0,아파트,A01,다성이즈텔(주상복합),102973,23,1,20040226,102.49,102.49,65000,66000,48000,48000,0.0,N,N,N,37.537445,127.135642
0,아파트,A01,다성팰리스,102894,19,1,20040323,61.32,88.97,50000,50000,0,0,0.0,N,N,N,37.539691,127.142145
0,아파트,A01,다오아트빌,23206,29,1,20010711,92.07,92.07,0,0,0,0,0.0,N,N,N,37.539344,127.136525
0,아파트,A01,더힐스빌,157677,16,1,20200406,34.43,35.24,0,0,0,0,0.0,N,N,N,37.540649,127.143236
0,아파트,A01,도고하임(도시형),109551,80,1,20140930,29.76,74.24,0,0,0,0,0.0,N,N,N,37.535664,127.138457
0,아파트,A01,도림시티빌,8560,42,1,20010518,87.81,169.53,64000,98000,0,0,0.0,N,N,N,37.53978,127.14692
0,아파트,A01,동삼빌라트,9201,48,1,19980727,69.26,95.33,67000,72000,0,0,0.0,N,N,N,37.538975,127.14772
0,아파트,A01,동서울오네뜨,101408,71,1,20091118,69.26,176.95,79000,85000,0,0,0.0,N,N,N,37.542495,127.143606
0,아파트,A01,동심훼밀리,14099,19,1,20021205,92.1,96.18,65000,65000,0,0,0.0,N,N,N,37.53922,127.136854
0,아파트,A01,드림하이츠(도시형),112377,24,1,20150716,44.56,56.38,0,0,0,0,0.0,N,N,N,37.536815,127.135751
0,아파트,A01,라온,137251,19,1,20201023,20.11,24.74,0,0,0,0,0.0,N,N,N,37.541103,127.142415
0,아파트,A01,라인,984,128,1,19980915,85.79,133.58,57000,68000,38000,65000,0.0,N,N,N,37.53909,127.14185
0,아파트,A01,메트로아파텔(주상복합),23574,22,1,20040913,80.67,93.31,75000,75000,0,0,0.0,N,N,N,37.537478,127.138877
0,아파트,A01,문화,9606,43,1,19980703,76.71,105.96,0,0,0,0,0.0,N,N,N,37.539711,127.143593
0,아파트,A01,백천이스트하임(도시형),118048,84,1,20121228,26.12,32.22,0,0,0,0,0.0,N,N,N,37.53946,127.141013
0,아파트,A01,비바체하임(도시형),140927,29,2,20190624,32.96,46.49,46000,48000,0,0,0.0,N,N,N,37.540367,127.14632
0,아파트,A01,삼보프리빌(주상복합),101984,16,1,20100127,95.93,108.35,0,0,0,0,0.0,N,N,N,37.539152,127.146742
0,아파트,A01,삼유스위트빌,10756,19,1,20021030,52.8,126.14,0,0,0,0,0.0,N,N,N,37.534597,127.140393
0,아파트,A01,삼익세라믹,985,83,1,19920629,105.55,105.55,69000,80000,39000,48000,0.0,N,N,N,37.53822,127.14858
0,아파트,A01,서한베네치아,23793,18,1,20050322,96.56,128.03,65000,65000,60000,60000,0.0,N,N,N,37.53692,127.14567
0,아파트,A01,시가오똠,157439,36,2,20040528,59.37,97.03,0,0,0,0,0.0,N,N,N,37.543363,127.142993
0,아파트,A01,신세대빌라트,13622,19,1,19990827,141.54,302.45,0,0,0,0,0.0,N,N,N,37.540602,127.144737
0,아파트,A01,신암(주상복합),13410,12,1,20001211,96.22,96.22,0,0,0,0,0.0,N,N,N,37.539986,127.1368
0,아파트,A01,신암가온(주상복합),9700,55,1,20020731,74.39,74.39,42000,45000,0,0,0.0,N,N,N,37.536949,127.137944
0,아파트,A01,아뜨리에빌,125231,38,3,20090728,59.54,73.25,0,0,0,0,0.0,N,N,N,37.539013,127.145267
0,아파트,A01,양촌,11306,19,2,20030217,82.59,86.67,0,0,0,0,0.0,N,N,N,37.540438,127.145736
0,아파트,A01,에스엠이로빌(358-1),106642,19,1,20040617,68.54,128.11,62000,62000,0,0,0.0,N,N,N,37.539624,127.141625
0,아파트,A01,에스엠이로빌(379),18987,36,1,20040430,57.56,102.51,65000,65000,0,0,0.0,N,N,N,37.538587,127.138955
0,아파트,A01,에이스빌(주상복합),13509,24,1,20030603,125.7,134.9,0,0,0,0,0.0,N,N,N,37.5404,127.13893
0,아파트,A01,예건네스빌(도시형),152201,10,1,20151211,29.36,34.85,0,0,0,0,0.0,N,N,N,37.543761,127.143529
0,아파트,A01,예건타워빌(주상복합),102009,17,1,20050110,43.66,102.9,55000,55000,0,0,0.0,N,N,N,37.538544,127.136828
0,아파트,A01,예다움,18368,38,1,20040703,75.58,128.78,60000,60000,0,0,0.0,N,N,N,37.54156,127.14273
0,아파트,A01,우림루미아트,10149,78,1,20031219,96.2,104.58,84000,84000,55000,55000,0.0,N,N,N,37.54211,127.14843
0,아파트,A01,우성(382-6),14159,49,1,19960513,65.09,70.32,40500,41000,0,0,0.0,N,N,N,37.538999,127.137366
0,아파트,A01,우성아트빌(주상복합),106736,39,1,20130425,82.02,151.52,69000,69000,0,0,0.0,N,N,N,37.538348,127.137102
0,아파트,A01,웅주아크로파크,110109,19,1,20060705,87.35,146.72,0,0,0,0,0.0,N,N,N,37.544392,127.14303
0,아파트,A01,유덕휴먼빌,13112,38,1,20030805,86.35,121.45,59000,70000,0,0,0.0,N,N,N,37.539889,127.145809
0,아파트,A01,율전에버그린,117909,28,1,20160215,28.31,59.35,0,0,0,0,0.0,N,N,N,37.536928,127.140783
0,아파트,A01,이스트드림힐(주상복합),14412,28,1,20031128,68.86,100.45,67000,75000,0,0,0.0,N,N,N,37.537876,127.136632
0,아파트,A01,장인이즈빌,13386,49,1,20040107,83.55,108.69,63000,78000,0,0,0.0,N,N,N,37.54006,127.14327
0,아파트,A01,주풍그린빌,100338,19,1,19961219,152.51,255.68,92000,92000,65000,65000,0.0,N,N,N,37.544147,127.144051
0,아파트,A01,청광플러스원큐브2차(주상복합),109159,111,1,20130730,25.86,25.86,11000,13500,0,0,0.0,N,N,N,37.535148,127.13689
0,아파트,A01,청광플러스원큐브3차(도시형),107583,207,1,20141006,22.35,25.68,11000,15000,12000,13000,0.0,N,N,N,37.536451,127.136445
0,아파트,A01,청원파크빌2차,13849,46,1,20041119,59.5,104.11,75000,80000,0,0,0.0,N,N,N,37.538759,127.145312
0,아파트,A01,청원파크빌3차,26782,28,1,20061221,84.9,109.44,75000,89000,0,0,0.0,N,N,N,37.538691,127.1458
0,아파트,A01,탑건위너빌,13587,19,1,20011109,83.31,119.38,0,0,0,0,0.0,N,N,N,37.534813,127.141612
0,아파트,A01,태성,24887,35,1,20031124,78.87,116.77,0,0,0,0,0.0,N,N,N,37.53897,127.14414
0,아파트,A01,태솔,101254,18,1,20091106,76.48,88.01,58000,62000,0,0,0.0,N,N,N,37.541884,127.142527
0,아파트,A01,태천해오름18차,100114,18,1,20031124,79.76,94.68,0,0,0,0,0.0,N,N,N,37.542408,127.148108
0,아파트,A01,태흥,25652,18,1,20040923,82.01,93.45,0,0,0,0,0.0,N,N,N,37.540378,127.143653
0,아파트,A01,파크하임,19577,18,1,20040626,90.56,101.99,0,0,0,0,0.0,N,N,N,37.53942,127.142303
0,아파트,A01,하이브(주상복합),25468,73,1,20061130,54.69,121.19,53000,70000,48000,50000,0.0,N,N,N,37.535503,127.13744
0,아파트,A01,하이존,27165,19,1,20040402,76.51,99.69,65000,70000,0,0,0.0,N,N,N,37.538435,127.146572
0,아파트,A01,한건,9496,39,1,20011224,91.98,99.52,0,0,0,0,0.0,N,N,N,37.534491,127.141955
0,아파트,A01,한미스카이캐슬(도시형),113527,104,1,20160830,19.21,26.55,0,0,0,0,0.0,N,N,N,37.536717,127.13832
0,아파트,A01,한빛(주상복합),11980,317,3,20011013,47.11,114.47,41000,86000,0,0,0.0,N,N,N,37.538326,127.136005
0,아파트,A01,한솔브리즈(주상복합),19250,35,1,20041006,100.9,148.63,61000,61000,0,0,0.0,N,N,N,37.537271,127.136379
0,아파트,A01,해맞이,106172,24,2,20050927,88.95,95.9,0,0,0,0,0.0,N,N,N,37.535087,127.143386
0,아파트,A01,현대,3070,264,2,19960809,81.8,107.48,74000,88000,48000,50000,0.0,N,N,N,37.536621,127.147374
0,아파트,A01,현대웰하임1단지(도시형),105069,128,1,20120427,25.72,25.72,11000,13000,11800,11800,0.0,N,N,N,37.541121,127.145455
0,아파트,A01,현대웰하임2단지(도시형),105068,139,1,20120427,19.12,27.03,9000,11000,10000,12500,0.0,N,N,N,37.541232,127.145827
0,아파트,A01,형인허브빌,22963,48,1,20050908,105.92,108.32,87700,89000,48000,48000,0.0,N,N,N,37.539768,127.147768
0,아파트,A01,효성노바,122468,12,1,20030506,65.69,96.25,69000,69000,0,0,0.0,N,N,N,37.541787,127.143123
0,아파트,A01,희훈리치파크,10069,102,1,20021212,93.73,105.93,75000,75000,0,0,0.0,N,N,N,37.53947,127.13949
0,아파트,A01,KNP(주상복합),11470,19,1,20021127,80.91,187.72,0,0,0,0,0.0,N,N,N,37.533152,127.14128
0,아파트,A01,KNP로얄,108621,19,1,20040615,59.19,97.53,0,0,0,0,0.0,N,N,N,37.528495,127.138913
0,아파트,A01,KnP이스트빌,17817,49,1,20040322,76.92,105.42,83000,83000,0,0,0.0,N,N,N,37.532742,127.141828
0,아파트,A01,경방필,15250,19,1,20030310,93.27,93.5,59500,60000,0,0,0.0,N,N,N,37.528535,127.138301
0,아파트,A01,광남,17818,31,2,20040218,84.75,99.64,80000,80000,0,0,0.0,N,N,N,37.529018,127.137775
0,아파트,A01,광남캐스빌(101~103동),22177,98,3,20041015,79.95,102.58,81000,89000,0,0,0.0,N,N,N,37.532829,127.138931
0,아파트,A01,광남캐스빌(105동),148488,28,1,20060728,108.42,142.29,90000,95000,60000,60000,0.0,N,N,N,37.533364,127.139295
0,아파트,A01,그랜드,25653,19,1,20031226,102.01,176.58,80000,105000,0,0,0.0,N,N,N,37.528869,127.138275
0,아파트,A01,금강트레조빌(도시형),130305,50,5,20130531,45.55,65.48,0,0,0,0,0.0,N,N,N,37.531923,127.13945
0,아파트,A01,노바,100761,12,1,20020716,44.17,84.11,0,0,0,0,0.0,N,N,N,37.532673,127.142879
0,아파트,A01,다원애버니아,102490,19,1,20040225,77.84,125.91,0,0,0,0,0.0,N,N,N,37.530532,127.139014
0,아파트,A01,더샵파크솔레이유,153330,195,4,202306,59.89,160.12,83000,180000,0,0,0.0,N,N,N,37.530203,127.144709
0,아파트,A01,도원빌,110710,12,1,20030822,61.74,97.27,70000,75000,0,0,0.0,N,N,N,37.532166,127.14076
0,아파트,A01,동아(621),828,170,2,19971231,85.44,108.36,69000,105000,0,0,0.0,N,N,N,37.533194,127.145817
0,아파트,A01,동아(94-16),1294,68,1,19920117,62.03,69.93,48000,53000,33000,35000,0.0,N,N,N,37.52881,127.14419
0,아파트,A01,동호리츠빌,24135,47,1,20041005,58.78,107.14,56000,65000,0,0,0.0,N,N,N,37.532895,127.143071
0,아파트,A01,둔촌광남캐스빌(631),106500,31,1,20120808,100.81,100.83,0,0,0,0,0.0,N,N,N,37.529186,127.138543
0,아파트,A01,둔촌늘푸른,100422,19,1,20090629,69.22,101.45,45000,45000,35000,35000,0.0,N,N,N,37.533523,127.142713
0,아파트,A01,둔촌신동아(파밀리에),3317,357,3,20021115,84.85,129.25,79000,135000,58000,60000,0.0,N,N,N,37.529319,127.141981
0,아파트,A01,둔촌신성미소지움,1296,460,2,19980502,87.26,145.85,82000,135000,43000,50000,0.0,N,N,N,37.527848,127.142846
0,아파트,A01,둔촌신성미소지움2차,3071,278,3,20001209,84.42,145.8,84000,140000,55000,75000,0.0,N,N,N,37.527259,127.143679
0,아파트,A01,둔촌암펠로스타워(주상복합),27049,32,1,20061215,117.65,267.37,90000,95000,60000,60000,0.0,N,N,N,37.528841,127.143174
0,아파트,A01,둔촌푸르지오,27212,800,10,20100312,83.42,138.93,99000,165000,59000,81000,0.0,N,N,N,37.534197,127.146111
0,아파트,A01,둔촌하이츠,896,232,1,19980501,86.3,149.48,75000,120000,40000,70000,0.0,N,N,N,37.529521,127.142431
0,아파트,A01,둔촌한솔솔파크,8487,132,2,20030724,85.43,127.37,102000,125000,55000,55000,0.0,N,N,N,37.533858,127.147948
0,아파트,A01,둔촌현대4차,1301,235,2,19960229,73.79,145.44,86000,110000,57000,60000,0.0,N,N,N,37.530002,127.144179
0,아파트,A01,둔촌현대수린나,128214,34,1,20191120,79.33,99.85,83900,87300,63000,630000,0.0,N,N,N,37.532871,127.145556
0,아파트,A01,둔촌후성누리움(실버주택),100602,51,1,20070426,101.98,110.01,61000,75000,55000,55000,0.0,N,N,N,37.531174,127.143102
0,아파트,A01,라온스토리(도시형),145837,10,1,20201218,32.83,39.77,0,0,0,0,0.0,N,N,N,37.532291,127.139667
0,아파트,A01,라이프,1295,78,2,19930313,89.43,95.08,79000,91000,51000,51000,0.0,N,N,N,37.529292,127.139492
0,아파트,A01,미랜드퀸,101948,21,2,20090407,129.75,166.37,120000,120000,0,0,0.0,N,N,N,37.53265,127.145246
0,아파트,A01,"삼성아트빌(470-10,도시형)",157597,15,1,20171128,36.01,48.92,0,0,0,0,0.0,N,N,N,37.531093,127.140118
0,아파트,A01,"삼성아트빌(77-70,도시형)",132187,15,1,20160930,31.28,50.0,0,0,0,0,0.0,N,N,N,37.530421,127.141572
0,아파트,A01,상상프리,104307,19,1,20120103,68.9,101.63,0,0,0,0,0.0,N,N,N,37.532778,127.139418
0,아파트,A01,새얀빌(도시형),146897,12,1,20211213,35.52,75.26,0,0,0,0,0.0,N,N,N,37.53193,127.141899
0,아파트,A01,성원,3067,74,1,19950907,76.69,99.89,65000,85000,36000,60000,0.0,N,N,N,37.532858,127.147892
0,아파트,A01,세양청마루(주상복합),23213,84,1,20051014,99.57,128.89,75000,110000,0,0,0.0,N,N,N,37.53343,127.14054
0,아파트,A01,아인리베,22738,55,1,20050428,102.89,103.97,80000,100000,0,0,0.0,N,N,N,37.53101,127.13849
0,아파트,A01,오앤하우스(도시형),108615,21,1,20140714,23.96,29.83,15800,15800,0,0,0.0,N,N,N,37.533259,127.139899
0,아파트,A01,율전에버그린,27167,18,1,20071005,94.7,118.54,0,0,0,0,0.0,N,N,N,37.526789,127.145981
0,아파트,A01,주풍그린빌라트,13378,18,1,19960321,141.47,198.81,130000,130000,0,0,0.0,N,N,N,37.533033,127.144862
0,아파트,A01,집앤사더로이(도시형),151203,10,1,20220701,43.09,75.28,0,0,0,0,0.0,N,N,N,37.531073,127.139456
0,아파트,A01,찬솔,107688,27,1,20070725,75.82,103.22,60000,80000,48000,48000,0.0,N,N,N,37.532473,127.14449
0,아파트,A01,청원파크빌,11448,61,1,20030802,91.29,134.96,0,0,55000,55000,0.0,N,N,N,37.531861,127.143332
0,아파트,A01,청호뜨레피움퍼스트,114622,40,1,20161216,72.21,75.3,53000,53000,0,0,0.0,N,N,N,37.53359,127.141921
0,아파트,A01,태상아트빌,22858,10,1,20020715,57.57,100.36,0,0,0,0,0.0,N,N,N,37.532676,127.1427
0,아파트,A01,태천해오름,26369,18,1,20030701,83.94,103.57,0,0,0,0,0.0,N,N,N,37.532913,127.14
0,아파트,A01,프라자,1292,354,4,19841210,101.28,129.31,100000,142000,60000,65000,0.0,N,N,N,37.535591,127.148234
0,아파트,A01,한솔파로스,102254,13,1,20081015,70.27,115.23,0,0,0,0,0.0,N,N,N,37.530173,127.139222
0,아파트,A01,현대1차,829,498,5,19841130,103.35,103.35,105000,140000,0,0,0.0,N,N,N,37.532171,127.146349
0,아파트,A01,현대2차,830,196,2,19880129,79.77,107.14,78000,95000,40000,40000,0.0,N,N,N,37.52939,127.140566
0,아파트,A01,현대3차,1300,160,1,19880602,72.21,90.29,65000,89000,30000,43000,0.0,N,N,N,37.52734,127.144888
0,아파트,A01,SM해그린,26248,48,1,20041220,58.53,169.53,60000,120000,0,0,0.0,N,N,N,37.545357,127.145644
0,아파트,A01,고덕(진로),897,68,1,19940304,163.95,163.95,105000,120000,65000,65000,0.0,N,N,N,37.553406,127.154743
0,아파트,A01,고덕삼환,1310,120,1,19870627,101.41,142.56,130000,143000,45000,56000,0.0,N,N,N,37.549421,127.151924
0,아파트,A01,고덕주공9단지,1314,1320,14,19851125,103.56,108.82,112000,130000,36000,45000,0.0,N,N,N,37.547941,127.151556
0,아파트,A01,고덕현대,1316,524,7,19860207,105.26,154.52,122000,177000,55000,80000,0.0,N,N,N,37.550542,127.153666
0,아파트,A01,다성시티1차,15259,19,1,20020924,51.12,97.5,0,0,0,0,0.0,N,N,N,37.545163,127.144979
0,아파트,A01,다성이즈빌,18565,26,2,20040617,71.3,96.52,65000,65000,0,0,0.0,N,N,N,37.545949,127.144042
0,아파트,A01,다성이즈빌명일4차,100317,19,1,20050204,72.68,97.05,62000,70000,50000,50000,0.0,N,N,N,37.545786,127.145142
0,아파트,A01,동양타워(주상복합),8880,24,1,19950214,99.58,124.64,69000,73000,0,0,0.0,N,N,N,37.552023,127.154102
0,아파트,A01,동은,17452,11,1,20040216,63.4,97.47,0,0,0,0,0.0,N,N,N,37.546923,127.145355
0,아파트,A01,동은그랜드,107516,19,1,20061102,68.05,98.22,0,0,45000,45000,0.0,N,N,N,37.545599,127.145393
0,아파트,A01,래미안솔베뉴,113432,1900,13,20190624,69.54,148.39,99800,230000,60000,120000,0.0,N,N,N,37.552813,127.145204
0,아파트,A01,명가(도시형),131032,10,1,20190510,34.96,70.25,0,0,0,0,0.0,N,N,N,37.548097,127.154806
0,아파트,A01,명가블랙(도시형),149473,10,1,20190910,27.21,57.41,0,0,0,0,0.0,N,N,N,37.547214,127.154998
0,아파트,A01,명일GS,903,772,2,19991227,81.18,116.04,70000,114000,39000,55000,0.0,N,N,N,37.549082,127.146089
0,아파트,A01,명일다성시티2차,11086,14,1,20021122,76.37,94.97,0,0,0,0,0.0,N,N,N,37.545741,127.144694
0,아파트,A01,명일다성이즈빌,102450,33,1,20101122,48.79,99.98,57000,57000,0,0,0.0,N,N,N,37.550947,127.141076
0,아파트,A01,명일삼환,1311,306,2,19920630,106.28,106.32,122000,140000,50000,55000,0.0,N,N,N,37.55377,127.15381
0,아파트,A01,명일현대,987,226,2,19881004,80.13,101.47,70000,95000,35000,45000,0.0,N,N,N,37.548911,127.148682
0,아파트,A01,삼보힐,16573,10,1,20011214,97.66,148.61,0,0,0,0,0.0,N,N,N,37.55137,127.14138
0,아파트,A01,삼익그린11차,8853,152,1,19860630,94.49,149.3,100000,145000,42000,45000,0.0,N,N,N,37.55189,127.15073
0,아파트,A01,센트로빌(주상복합),14162,19,1,20031103,75.54,125.69,65000,65000,38000,38000,0.0,N,N,N,37.550209,127.146155
0,아파트,A01,신동아,1312,570,7,19860208,97.69,146.39,145000,188000,49500,85000,0.0,N,N,N,37.554205,127.151859
0,아파트,A01,쎄비앙,128597,7,1,20060117,105.92,105.92,0,0,0,0,0.0,N,N,N,37.552864,127.143102
0,아파트,A01,아름누리,118603,40,4,20140912,37.81,64.46,0,0,32000,32000,0.0,N,N,N,37.548593,127.146441
0,아파트,A01,우성(356),18555,77,3,20040203,52.75,105.3,51900,78000,0,0,0.0,N,N,N,37.552828,127.142039
0,아파트,A01,우성(42),1313,572,8,19860523,103.8,153.78,132000,178000,54000,70000,0.0,N,N,N,37.550955,127.152179
0,아파트,A01,원일타워(도시형),131688,119,1,20200424,31.98,97.7,0,0,0,0,0.0,N,N,N,37.545404,127.143317
0,아파트,A01,은진빌(도시형),123553,15,1,20130820,21.02,25.12,0,0,0,0,0.0,N,N,N,37.552282,127.141847
0,아파트,A01,중앙,9140,47,1,20011124,85.32,105.12,68000,88000,47000,47000,0.0,N,N,N,37.549941,127.145253
0,아파트,A01,케이엔피(KNP),14206,19,1,20021116,98.89,99.99,0,0,0,0,0.0,N,N,N,37.548204,127.144417
0,아파트,A01,태천해오름(101동),19447,49,1,20040705,85.21,105.26,75000,78500,0,0,0.0,N,N,N,37.545492,127.14433
0,아파트,A01,태천해오름(102A),100648,18,1,20041030,54.34,95.65,0,0,0,0,0.0,N,N,N,37.545139,127.144108
0,아파트,A01,태천해오름(102B),100649,6,1,20041030,118.86,118.86,0,0,0,0,0.0,N,N,N,37.545003,127.144064
0,아파트,A01,태천해오름(103),100650,18,1,20041118,73.84,94.76,0,0,0,0,0.0,N,N,N,37.545115,127.144538
0,아파트,A01,한강훼미리(주상복합),103276,18,1,20040728,93.56,93.67,0,0,0,0,0.0,N,N,N,37.546684,127.144701
